stop_id,stop_code,stop_name,stop_desc,stop_lat,stop_lon,location_type,parent_station,date_donnee
A1003,1003,La Trigalle,CROIX-CHAPEAU - LA TRIGALLE,46.107384,-0.997703,1,"",2023-10-20 04:01:38.0
A1063,1063,Galland,DOMPIERRE - GALLAND,46.188628,-1.068435,1,"",2023-10-20 04:01:38.0
A1064,1064,Chagnolet,[Chagn],46.176377,-1.092484,1,"",2023-10-20 04:01:38.0
A1071,1071,La Grelèterie,DOMPIERRE - LA GRELETERIE,46.186565,-1.089516,1,"",2023-10-20 04:01:38.0
A1073,1073,Les Brandes,DOMPIERRE Les Brandes,46.187474,-1.083848,1,"",2023-10-20 04:01:38.0
A1074,1074,Mouillepieds,DOMPIERRE - MOUILLEPIEDS,46.207332,-1.048942,1,"",2023-10-20 04:01:38.0
A1158,1158,Mairie d'Esnandes,ESNANDES - MAIRIE,46.249619,-1.11601,1,"",2023-10-20 04:01:38.0
A1415,1415,Bourg de L'Houmeau,L'HOUMEAU - BOURG,46.193222,-1.187016,1,"",2023-10-20 04:01:38.0
A1433,1433,Carrefour de Buzay,LA JARNE Carrefour de Buzay,46.126693,-1.078236,1,"",2023-10-20 04:01:38.0
A1434,1434,Carrefour de Vuhé,LA JARNE Carrefour de Vuhé,46.118833,-1.077908,1,"",2023-10-20 04:01:38.0
A1436,1436,Ecoles,LA JARNE - ECOLES,46.129475,-1.070521,1,"",2023-10-20 04:01:38.0
A1438,1438,Le Givrand,LA JARNE - LE GIVRAND,46.130065,-1.080105,1,"",2023-10-20 04:01:38.0
A1439,1439,Le Moulin,LA JARNE - LE MOULIN,46.126464,-1.06747,1,"",2023-10-20 04:01:38.0
A1440,1440,Pluviers Dorés,LA JARNE - PLUVIERS DORES,46.12607,-1.064213,1,"",2023-10-20 04:01:38.0
A1443,1443,Chassagné,LA JARRIE Chassagné,46.131849,-1.044183,1,"",2023-10-20 04:01:38.0
A1447,1447,Collège Françoise Dolto,LA JARRIE - COLLEGE FRANCOISE DOLTO,46.1314,-1.00603,1,"",2023-10-20 04:01:38.0
A1448,1448,Fief Jaulin,LA JARRIE - FIEF JAULIN,46.124058,-1.006136,1,"",2023-10-20 04:01:38.0
A1455,1455,Les Abeilles,LA JARRIE Les Abeilles,46.129891,-1.002138,1,"",2023-10-20 04:01:38.0
A1491,1491,RTCR,[RTCR],46.177263,-1.156848,1,"",2023-10-20 04:01:38.0
A1493,1493,Collège Jean Guiton,[CESJG],46.172464,-1.17136,1,"",2023-10-20 04:01:38.0
A1494,1494,Zone d'Activités,[ZoAct],46.186189,-1.150938,1,"",2023-10-20 04:01:38.0
A1615,1615,Coulonge,MARSILLY - COULONGE,46.226228,-1.139904,1,"",2023-10-20 04:01:38.0
A1616,1616,Horizon,MARSILLY - HORIZON,46.232208,-1.145081,1,"",2023-10-20 04:01:38.0
A1618,1618,Moulin Neuf,MARSILLY - MOULIN NEUF,46.220484,-1.149302,1,"",2023-10-20 04:01:38.0
A1620,1620,Nantilly Beauvoirs,MARSILLY - NANTILLY BEAUVOIRS,46.233645,-1.129396,1,"",2023-10-20 04:01:38.0
A1621,1621,Place de Nantilly,MARSILLY - NANTILLY PLACE,46.229776,-1.131518,1,"",2023-10-20 04:01:38.0
A1841,1841,Les Ormeaux,MONTROY Les Ormeaux,46.152195,-1.007453,1,"",2023-10-20 04:01:38.0
A1842,1842,Mairie de Montroy,MONTROY - MAIRIE,46.156149,-1.013231,1,"",2023-10-20 04:01:38.0
A1844,1844,Saint-Julien,MONTROY Saint-Julien,46.164583,-1.027395,1,"",2023-10-20 04:01:38.0
A1976,1976,Centre Commercial de Nieul,[CCoNi],46.202273,-1.174919,1,"",2023-10-20 04:01:38.0
A1977,1977,L'Aubreçay,SAINT XANDRE L'Aubreçay,46.210917,-1.135633,1,"",2023-10-20 04:01:38.0
A1978,1978,L'Ouaille,[Ouail],46.209475,-1.184938,1,"",2023-10-20 04:01:38.0
A1979,1979,Lauzières,[Lauzi],46.208306,-1.186257,1,"",2023-10-20 04:01:38.0
A1980,1980,Nieul Le Gô,[GoNie],46.208926,-1.158206,1,"",2023-10-20 04:01:38.0
A1981,1981,Le Grimaud,NIEUL - LE GRIMAUD,46.20097,-1.171944,1,"",2023-10-20 04:01:38.0
A1983,1983,Moulin Ragot,[MoRag],46.19972,-1.159906,1,"",2023-10-20 04:01:38.0
A1985,1985,Salle Polyvalente de Nieul,[SaPNi],46.204688,-1.172013,1,"",2023-10-20 04:01:38.0
A1986,1986,Val Hureau,NIEUL - VAL HUREAU,46.211654,-1.160018,1,"",2023-10-20 04:01:38.0
A202,202,Alstom,[Alsto],46.136167,-1.123727,1,"",2023-10-20 04:01:38.0
A203,203,Bourg d'Aytré,[BgAyt] AYTRE Bourg,46.133634,-1.113191,1,"",2023-10-20 04:01:38.0
A205,205,Collège de l'Atlantique,AYTRE Collège de l'Atlantique,46.131507,-1.126082,1,"",2023-10-20 04:01:38.0
A206,206,Les Cèdres,[Cedre] AYTRE Les Cèdres,46.129836,-1.11679,1,"",2023-10-20 04:01:38.0
A207,207,Les Iles,[LIles],46.137849,-1.128519,1,"",2023-10-20 04:01:38.0
A208,208,Place des Grands Prés,[PGPre],46.132659,-1.121231,1,"",2023-10-20 04:01:38.0
A2253,2253,11 Novembre 1918,[11N18],46.17336,-1.150421,1,"",2023-10-20 04:01:38.0
A2254,2254,8 Mai 1945,[8MaiL],46.183092,-1.152411,1,"",2023-10-20 04:01:38.0
A2257,2257,Bel Air,[BlAir],46.166327,-1.1642,1,"",2023-10-20 04:01:38.0
A2259,2259,Champ de Mars,[CMars],46.169447,-1.148776,1,"",2023-10-20 04:01:38.0
A2260,2260,Collège Fabre d'Eglantine,[ColFa],46.152044,-1.115227,1,"",2023-10-20 04:01:38.0
A2261,2261,Collège de Beauregard,[CoBea],46.171097,-1.132516,1,"",2023-10-20 04:01:38.0
A2263,2263,Fabre d'Eglantine,[Fabre],46.150783,-1.116057,1,"",2023-10-20 04:01:38.0
A2265,2265,Hôpital,[Hopit],46.158328,-1.145022,1,"",2023-10-20 04:01:38.0
A2266,2266,Hôpital Lafond,[HLafo],46.176486,-1.136155,1,"",2023-10-20 04:01:38.0
A2268,2268,La Genette,[Genet],46.160648,-1.171787,1,"",2023-10-20 04:01:38.0
A2269,2269,La Trompette,[Tromp],46.1709,-1.158813,1,"",2023-10-20 04:01:38.0
A2270,2270,Centre de Soins,[CSoin],46.175135,-1.131405,1,"",2023-10-20 04:01:38.0
A2271,2271,Place des Halles,[PlHal],46.168933,-1.199794,1,"",2023-10-20 04:01:38.0
A2272,2272,Laleu Sports,[LSpor],46.164413,-1.200644,1,"",2023-10-20 04:01:38.0
A2273,2273,Le Mail Casino,[MCasi],46.155808,-1.166499,1,"",2023-10-20 04:01:38.0
A2274,2274,LEP Rompsay,[LEPRo],46.161013,-1.126484,1,"",2023-10-20 04:01:38.0
A2275,2275,Cité des Minimes,[CiMin],46.139355,-1.165886,1,"",2023-10-20 04:01:38.0
A2277,2277,Lycée Valin,[LyVal],46.154996,-1.135594,1,"",2023-10-20 04:01:38.0
A2278,2278,Lycée Vieljeux,[LyVje],46.177135,-1.151672,1,"",2023-10-20 04:01:38.0
A2280,2280,Guiardes,[Guiar],46.171674,-1.17977,1,"",2023-10-20 04:01:38.0
A2281,2281,Place de Lafond,[PLfon],46.174072,-1.145409,1,"",2023-10-20 04:01:38.0
A2282,2282,Place de Verdun,[PdV],46.162154,-1.153842,1,"",2023-10-20 04:01:38.0
A2283,2283,Port La Pallice,[PLPal],46.161144,-1.220066,1,"",2023-10-20 04:01:38.0
A2284,2284,Provence,[Prvce],46.156619,-1.177691,1,"",2023-10-20 04:01:38.0
A2285,2285,Stade M. Deflandre,[StdMD],46.157516,-1.180013,1,"",2023-10-20 04:01:38.0
A2286,2286,Porte Royale,[PRyal],46.162207,-1.141695,1,"",2023-10-20 04:01:38.0
A2287,2287,Prague,[Pragu],46.170534,-1.17405,1,"",2023-10-20 04:01:38.0
A2289,2289,Proudhon,[Proud],46.15319,-1.131067,1,"",2023-10-20 04:01:38.0
A2291,2291,Renaudot,[Rndot],46.159002,-1.161391,1,"",2023-10-20 04:01:38.0
A2292,2292,Rossignolette,[Rossi],46.165363,-1.186431,1,"",2023-10-20 04:01:38.0
A2293,2293,Dupaty,[Dupat],46.160127,-1.152872,1,"",2023-10-20 04:01:38.0
A2294,2294,Saint-Maurice,[StMau],46.164117,-1.175105,1,"",2023-10-20 04:01:38.0
A2474,2474,Cugné,SAINT CHRISTOPHE - CUGNE,46.142114,-0.96699,1,"",2023-10-20 04:01:38.0
A2475,2475,Belle d'Oie,SAINT CHRISTOPHE Belle d'Oie,46.141162,-0.955961,1,"",2023-10-20 04:01:38.0
A2476,2476,La Mazurie,SAINT CHRISTOPHE - LA MAZURIE,46.147765,-0.941759,1,"",2023-10-20 04:01:38.0
A2899,2899,La Martinière,SAINT CHRISTOPHE - LA MARTINIERE,46.153406,-0.932689,1,"",2023-10-20 04:01:38.0
A2901,2901,L'Aubertière,ST MEDARD L'Aubertière,46.156336,-0.987519,1,"",2023-10-20 04:01:38.0
A2904,2904,La Couronne de Cugné,SAINT CHRISTOPHE - LA COURONNE DE CUGNE,46.143427,-0.970845,1,"",2023-10-20 04:01:38.0
A2906,2906,La Navisselière,SAINT CHRISTOPHE - LA NAVISSELIERE,46.147339,-0.952103,1,"",2023-10-20 04:01:38.0
A2907,2907,Le Moulin Neuf,SAINT CHRISTOPHE - LE MOULIN NEUF,46.158528,-0.950101,1,"",2023-10-20 04:01:38.0
A2908,2908,Le Pontreau,SAINT-MEDARD Le Pontreau,46.177871,-0.956471,1,"",2023-10-20 04:01:38.0
A2909,2909,Treuil Arnaudeau,MONTROY Treuil Arnaudeau,46.171071,-1.004122,1,"",2023-10-20 04:01:38.0
A2910,2910,Les Touches,SAINT-MEDARD Les Touches,46.166715,-0.947718,1,"",2023-10-20 04:01:38.0
A3059,3059,Mairie de Saint-Rogatien,[MaiSR],46.150859,-1.073219,1,"",2023-10-20 04:01:38.0
A3160,3160,Chavagne,STE SOULLE Chavagne,46.194114,-1.0226,1,"",2023-10-20 04:01:38.0
A3163,3163,Eglise de Sainte Soulle,ST SOULLE - EGLISE,46.185769,-1.009408,1,"",2023-10-20 04:01:38.0
A3164,3164,Fontpatour,VERINES Fontpatour,46.178947,-0.956631,1,"",2023-10-20 04:01:38.0
A3165,3165,La Gabardelière,BOURGNEUF La Gabardelière,46.174451,-1.036191,1,"",2023-10-20 04:01:38.0
A3167,3167,Les Petites Rivières,STE SOULLE - LES PETITES RIVIERES,46.2008,-1.050239,1,"",2023-10-20 04:01:38.0
A3168,3168,Mairie de Sainte Soulle,STE SOULLE - MAIRIE,46.187387,-1.012683,1,"",2023-10-20 04:01:38.0
A3170,3170,Saint-Coux,STE SOULLE Saint-Coux,46.183724,-0.974175,1,"",2023-10-20 04:01:38.0
A3171,3171,Usseau Ecole,STE SOULLE - USSEAU ECOLE,46.202059,-1.030451,1,"",2023-10-20 04:01:38.0
A3222,3222,La Ragoterie,ST VIVIEN - LA RAGOTERIE,46.087567,-1.059844,1,"",2023-10-20 04:01:38.0
A3224,3224,Loin du Bruit,ST VIVIEN - LOIN DU BRUIT,46.082437,-1.07401,1,"",2023-10-20 04:01:38.0
A3225,3225,Mairie de Saint Vivien,ST VIVIEN - MAIRIE,46.079913,-1.054266,1,"",2023-10-20 04:01:38.0
A3226,3226,Les Bonneveaux,SALLES SUR MER Les Bonneveaux,46.08385,-1.072862,1,"",2023-10-20 04:01:38.0
A3232,3232,Champ de Foire,ST XANDRE - CHAMP DE FOIRE,46.205469,-1.100853,1,"",2023-10-20 04:01:38.0
A3234,3234,Fief Dompierre,ST XANDRE - FIEF DOMPIERRE,46.199736,-1.098284,1,"",2023-10-20 04:01:38.0
A3236,3236,La Ribotelière,[Ribot],46.20709,-1.111535,1,"",2023-10-20 04:01:38.0
A3237,3237,La Sauzaie,ST XANDRE - LA SAUZAIE,46.214972,-1.075393,1,"",2023-10-20 04:01:38.0
A3239,3239,Le Paradis,[Parad],46.199203,-1.106314,1,"",2023-10-20 04:01:38.0
A3240,3240,Océan,[Ocean],46.206362,-1.105236,1,"",2023-10-20 04:01:38.0
A3246,3246,Salle des Fêtes de Saint-Xandre,[SFeSX],46.202944,-1.102624,1,"",2023-10-20 04:01:38.0
A3247,3247,Trente Vents,ST XANDRE - TRENTE VENTS,46.214371,-1.094371,1,"",2023-10-20 04:01:38.0
A3265,3265,Bourg de Salles sur Mer,SALLES SUR MER - BOURG,46.105111,-1.053993,1,"",2023-10-20 04:01:38.0
A3272,3272,La Frénée,SALLES SUR MER - LA FRENEE,46.095779,-1.058358,1,"",2023-10-20 04:01:38.0
A3415,3415,La Gravelle,THAIRE - LA GRAVELLE,46.082174,-0.966479,1,"",2023-10-20 04:01:38.0
A3416,3416,Mortagne,THAIRE - MORTAGNE,46.083916,-1.019415,1,"",2023-10-20 04:01:38.0
A3626,3626,Villa Laurius,VERINES Villa Laurius,46.210376,-0.9902,1,"",2023-10-20 04:01:38.0
A3715,3715,Le Marouillet Ecole,YVES - LE MAROUILLET ECOLE,46.041294,-1.045006,1,"",2023-10-20 04:01:38.0
A3720,3720,Les Trois Canons,YVES Les Trois Canons,46.057197,-1.06024,1,"",2023-10-20 04:01:38.0
A3725,3725,Voutron,YVES Voutron,46.049046,-1.024524,1,"",2023-10-20 04:01:38.0
A3817,3817,Gare de Châtelaillon-Plage,[GaCha] CHATELAILLON-PLAGE Gare,46.078064,-1.091127,1,"",2023-10-20 04:01:38.0
A3885,3885,La Fromagère,DOMPIERRE - LA FROMAGERE,46.191394,-1.075441,1,"",2023-10-20 04:01:38.0
A3886,3886,La Grimenaudière,STE SOULLE - LA GRIMENAUDIERE,46.206226,-1.047801,1,"",2023-10-20 04:01:38.0
A4035,4035,Four à Chaux,DOMPIERRE-SUR-MER Four à Chaux,46.175198,-1.065228,1,"",2023-10-20 04:01:38.0
A411,411,Centre-Bourg,BOURGNEUF Centre-Bourg,46.167577,-1.024555,1,"",2023-10-20 04:01:38.0
A412,412,Calvaire,BOURGNEUF Calvaire,46.170081,-1.01637,1,"",2023-10-20 04:01:38.0
A413,413,Les Gacheteries,BOURGNEUF Les Gacheteries,46.162041,-1.021697,1,"",2023-10-20 04:01:38.0
A4214,4214,Port Punay,[PoPun] YVES Port Punay,46.057001,-1.077174,1,"",2023-10-20 04:01:38.0
A4258,4258,La Chapelle,YVES La Chapelle,46.044931,-1.047365,1,"",2023-10-20 04:01:38.0
A4259,4259,La Cabane des Sables,YVES La Cabane des Sables,46.058587,-1.071454,1,"",2023-10-20 04:01:38.0
A4369,4369,Les Tausières,[Tausi],46.168751,-1.10888,1,"",2023-10-20 04:01:38.0
A4459,4459,Grosse Horloge,[GrHor],46.158108,-1.153461,1,"",2023-10-20 04:01:38.0
A4493,4493,Les Platanes,[LPlat],46.170622,-1.104238,1,"",2023-10-20 04:01:38.0
A4501,4501,Delayant,[Delay],46.164513,-1.155627,1,"",2023-10-20 04:01:38.0
A4502,4502,Esplanade des Parcs,[EsPar],46.166022,-1.153769,1,"",2023-10-20 04:01:38.0
A4503,4503,Piscine,[Pisci],46.169594,-1.151567,1,"",2023-10-20 04:01:38.0
A4504,4504,La Vallée,[Valle],46.173592,-1.160934,1,"",2023-10-20 04:01:38.0
A4505,4505,Pas des Laquais,[PaLaq],46.172134,-1.163434,1,"",2023-10-20 04:01:38.0
A4506,4506,ZAC La Vallée,[ZVall],46.173488,-1.166069,1,"",2023-10-20 04:01:38.0
A4507,4507,Fief Rose,[FRose],46.180412,-1.167239,1,"",2023-10-20 04:01:38.0
A4508,4508,Les Charmilles,[Charm],46.175817,-1.159487,1,"",2023-10-20 04:01:38.0
A4509,4509,La Tramontane,[Tramo],46.178113,-1.153741,1,"",2023-10-20 04:01:38.0
A4510,4510,Moulin du Bonheur,L'HOUMEAU - MOULIN DU BONHEUR,46.185744,-1.177829,1,"",2023-10-20 04:01:38.0
A4511,4511,Le Cormier,L'HOUMEAU - LE CORMIER,46.191633,-1.185293,1,"",2023-10-20 04:01:38.0
A4512,4512,Le Clos du Chêne,L'HOUMEAU - CLOS DU CHÊNE,46.193245,-1.183854,1,"",2023-10-20 04:01:38.0
A4513,4513,Charles Dervau,L'HOUMEAU Charles Dervau,46.189864,-1.18872,1,"",2023-10-20 04:01:38.0
A4514,4514,Le Chêne,L'HOUMEAU Le Chêne,46.192824,-1.182037,1,"",2023-10-20 04:01:38.0
A4515,4515,Fief Cotteret,L'HOUMEAU - FIEF COTTERET,46.190855,-1.17554,1,"",2023-10-20 04:01:38.0
A4516,4516,La Genillière,L'HOUMEAU - LA GENILLIERE,46.193289,-1.173569,1,"",2023-10-20 04:01:38.0
A4517,4517,Les Mouettes,L'HOUMEAU - LES MOUETTES,46.195987,-1.181969,1,"",2023-10-20 04:01:38.0
A4518,4518,Le Bonnodeau,LAGORD Le Bonnodeau,46.182089,-1.172581,1,"",2023-10-20 04:01:38.0
A4520,4520,Rose des Vents,L'HOUMEAU - ROSE DES VENTS,46.195544,-1.186077,1,"",2023-10-20 04:01:38.0
A4521,4521,Les Hauts de Nieul,[HNieu],46.204544,-1.180477,1,"",2023-10-20 04:01:38.0
A4522,4522,Octroi,[Octro],46.145414,-1.142507,1,"",2023-10-20 04:01:38.0
A4525,4525,Salengro,[Salen],46.140209,-1.13422,1,"",2023-10-20 04:01:38.0
A4526,4526,Ball-Trap,[BTrap] ANGOULINS Ball-Trap,46.092041,-1.099267,1,"",2023-10-20 04:01:38.0
A4527,4527,La Petite Borde,CHATELAILLON-PLAGE La Petite Borde,46.079232,-1.080961,1,"",2023-10-20 04:01:38.0
A4528,4528,Mairie de Châtelaillon-Plage,[MaiCh] CHATELAILLON-PLAGE Mairie,46.073286,-1.089788,1,"",2023-10-20 04:01:38.0
A4531,4531,Centre Aquatique,[CAqua] CHATELAILLON-PLAGE Centre Aquati,46.062526,-1.091476,1,"",2023-10-20 04:01:38.0
A4532,4532,Alon,[Alon] CHATELAILLON-PLAGE Alon,46.064868,-1.088453,1,"",2023-10-20 04:01:38.0
A4536,4536,Casino,[Casin] CHATELAILLON-PLAGE Casino,46.076331,-1.091634,1,"",2023-10-20 04:01:38.0
A4537,4537,Sècheboue,[Sebou] CHATELAILLON-PLAGE - SECHEBOUE,46.08809,-1.096658,1,"",2023-10-20 04:01:38.0
A4539,4539,Centre Commercial d'Angoulins,ANGOULINS Centre Commercial,46.109712,-1.104961,1,"",2023-10-20 04:01:38.0
A4541,4541,Les Russons,ANGOULINS Les Russons,46.110215,-1.111405,1,"",2023-10-20 04:01:38.0
A4542,4542,Les Veaux Verts,[VeaVe] ANGOULINS Les Veaux Verts,46.101475,-1.107889,1,"",2023-10-20 04:01:38.0
A4543,4543,Maison Carrée,[MaCar] ANGOULINS Maison Carrée,46.097365,-1.104193,1,"",2023-10-20 04:01:38.0
A4544,4544,Les Tertres,[Tertr] ANGOULINS Les Tertres,46.104059,-1.098758,1,"",2023-10-20 04:01:38.0
A4545,4545,Blockhaus,[Block] ANGOULINS Blockhaus,46.104575,-1.104653,1,"",2023-10-20 04:01:38.0
A4546,4546,Nationale,[Natio] ANGOULINS Nationale,46.104019,-1.094792,1,"",2023-10-20 04:01:38.0
A4589-DBLD,4589,Dames Blanches (Louis Durand),[DamBl],46.158594,-1.148313,1,"",2023-10-20 04:01:38.0
A4589-DBM,4589,Dames Blanches (Maubec),[DamBl],46.158997,-1.149569,1,"",2023-10-20 04:01:38.0
A4589-DBQV,4589,Dames Blanches (Quai Valin),[DamBl],46.157963,-1.150502,1,"",2023-10-20 04:01:38.0
A4589-DBSN,4589,Dames Blanches (St-Nicolas),[DamBl],46.158436,-1.149666,1,"",2023-10-20 04:01:38.0
A4589-DBSS,4589,Dames Blanches (St-Sauveur),[DamBl],46.158449,-1.150672,1,"",2023-10-20 04:01:38.0
A4594,4594,EIGSI,[Eigsi],46.139343,-1.155096,1,"",2023-10-20 04:01:38.0
A4633,4633,Pas de l'Ane,VERINES Pas de l'Ane,46.206796,-0.990303,1,"",2023-10-20 04:01:38.0
A4636,4636,Les Gués,VERINES Les Gués,46.178265,-0.950975,1,"",2023-10-20 04:01:38.0
A4677,4677,Glacière,[Glaci],46.1667,-1.150702,1,"",2023-10-20 04:01:38.0
A4680,4680,Jules Ferry,[JuFer],46.134193,-1.118102,1,"",2023-10-20 04:01:38.0
A4682,4682,Jaurès,[Jaure],46.132953,-1.112127,1,"",2023-10-20 04:01:38.0
A4683,4683,Malidor,[Mldor],46.13171,-1.10504,1,"",2023-10-20 04:01:38.0
A4684,4684,Belle Aire,[BelAi],46.131177,-1.097247,1,"",2023-10-20 04:01:38.0
A4685,4685,La Girardière,LA JARNE - LA GIRARDIERE,46.12424,-1.05001,1,"",2023-10-20 04:01:38.0
A4686,4686,Grande Rue,GROLLEAU GRANDE RUE,46.117543,-1.023795,1,"",2023-10-20 04:01:38.0
A4687,4687,Le Puits,LA JARRIE - GROLLEAU LE PUITS,46.115382,-1.017946,1,"",2023-10-20 04:01:38.0
A4688,4688,Rue du Chat,CROIX-CHAPEAU - RUE DU CHAT,46.111145,-1.010866,1,"",2023-10-20 04:01:38.0
A4689,4689,Boulangerie,CROIX-CHAPEAU Boulangerie,46.109406,-1.00629,1,"",2023-10-20 04:01:38.0
A4690,4690,Eglise de Saint Christophe,SAINT-CHRISTOPHE Eglise,46.145468,-0.947461,1,"",2023-10-20 04:01:38.0
A4699,4699,Lycée Hôtelier,[LyHot],46.143977,-1.159688,1,"",2023-10-20 04:01:38.0
A4763,4763,P+R Simone Veil,[PRSVe] AYTRE P+R Simone Veil,46.14332,-1.126992,1,"",2023-10-20 04:01:38.0
A4793,4793,Place du Pourquoi Pas,AYTRE Place du Pourquoi Pas,46.134125,-1.127496,1,"",2023-10-20 04:01:38.0
A4795,4795,Modigliani,[Modig],46.131902,-1.108027,1,"",2023-10-20 04:01:38.0
A4798,4798,Collège,AYTRE Collège,46.132904,-1.124654,1,"",2023-10-20 04:01:38.0
A4799,4799,Anville,AYTRE Anville,46.137963,-1.111492,1,"",2023-10-20 04:01:38.0
A4800,4800,Les Embruns,[Embru],46.129605,-1.122838,1,"",2023-10-20 04:01:38.0
A4801,4801,Ancienne Gare,AYTRE Ancienne Gare,46.136405,-1.111774,1,"",2023-10-20 04:01:38.0
A4803,4803,Les Vignes,AYTRE Les Vignes,46.138809,-1.114748,1,"",2023-10-20 04:01:38.0
A4805,4805,Renan,[Renan],46.129327,-1.117844,1,"",2023-10-20 04:01:38.0
A4806,4806,Brassens,AYTRE Brassens,46.141412,-1.131475,1,"",2023-10-20 04:01:38.0
A4807,4807,Aéroport,[Aerop],46.175622,-1.195444,1,"",2023-10-20 04:01:38.0
A4808,4808,Air Liquide,[AirLi],46.161605,-1.203241,1,"",2023-10-20 04:01:38.0
A4809,4809,Aquarium,[Aquar],46.152534,-1.150147,1,"",2023-10-20 04:01:38.0
A4810,4810,Olga de Saint-Affrique,[OStAf],46.16936,-1.186674,1,"",2023-10-20 04:01:38.0
A4813,4813,Banque de France,[BanFr],46.158991,-1.156244,1,"",2023-10-20 04:01:38.0
A4814,4814,Bâtiment 23,[Bat23],46.157097,-1.181766,1,"",2023-10-20 04:01:38.0
A4815,4815,Bourbonnais,[Brbon],46.157674,-1.184535,1,"",2023-10-20 04:01:38.0
A4816,4816,Bretagne,[Breta],46.159727,-1.181766,1,"",2023-10-20 04:01:38.0
A4818,4818,Chirons Longs,[ChiLo],46.163924,-1.207988,1,"",2023-10-20 04:01:38.0
A4819,4819,Cité,[Cite],46.166274,-1.190452,1,"",2023-10-20 04:01:38.0
A4820,4820,Porte de Cougnes,[PCoug],46.162978,-1.145749,1,"",2023-10-20 04:01:38.0
A4821,4821,Claude Masse,[ClMas],46.162675,-1.160694,1,"",2023-10-20 04:01:38.0
A4822,4822,Colbert,[Cbert],46.168205,-1.158974,1,"",2023-10-20 04:01:38.0
A4823,4823,Colibri,[Clbri],46.169869,-1.195291,1,"",2023-10-20 04:01:38.0
A4824,4824,Coligny,[Colig],46.163312,-1.16476,1,"",2023-10-20 04:01:38.0
A4825,4825,Coligny Guiton,[CoGui],46.159584,-1.165006,1,"",2023-10-20 04:01:38.0
A4826,4826,Orbigny,[Orbig],46.16444,-1.149892,1,"",2023-10-20 04:01:38.0
A4827,4827,Duquesne,[Duque],46.163689,-1.211295,1,"",2023-10-20 04:01:38.0
A4828,4828,Ecole La Courbe,[EcCou] AYTRE Ecole La Courbe,46.140767,-1.133985,1,"",2023-10-20 04:01:38.0
A4829,4829,Lycée Maritime,[LyMar],46.154702,-1.180782,1,"",2023-10-20 04:01:38.0
A4830,4830,Eglise de Laleu,[EglLl],46.170283,-1.203019,1,"",2023-10-20 04:01:38.0
A4831,4831,Ludothèque,[Ludot],46.170127,-1.177332,1,"",2023-10-20 04:01:38.0
A4832,4832,Eugène Dor,[EugDo],46.161347,-1.207283,1,"",2023-10-20 04:01:38.0
A4833,4833,Fac de Droit,[FDroi],46.140336,-1.153461,1,"",2023-10-20 04:01:38.0
A4834,4834,Franck Espoir,[FEspo],46.172873,-1.160801,1,"",2023-10-20 04:01:38.0
A4835,4835,Frigo,[Frigo],46.161562,-1.213488,1,"",2023-10-20 04:01:38.0
A4836,4836,IUT,[IUTec],46.143541,-1.153302,1,"",2023-10-20 04:01:38.0
A4837,4837,Jacques Henry,[JHenr],46.16463,-1.198228,1,"",2023-10-20 04:01:38.0
A4838,4838,Gare La Rochelle - Jean Moulin,[GaJMo],46.152802,-1.139408,1,"",2023-10-20 04:01:38.0
A4839,4839,Jéricho,[Jeric],46.166344,-1.159608,1,"",2023-10-20 04:01:38.0
A4840,4840,Jourdan,[Jourd],46.164044,-1.158728,1,"",2023-10-20 04:01:38.0
A4842,4842,Kennedy,[Kenne],46.167529,-1.180792,1,"",2023-10-20 04:01:38.0
A4843,4843,La Chope,[Chope],46.168995,-1.169681,1,"",2023-10-20 04:01:38.0
A4844,4844,La Corniche,[Cnche],46.153603,-1.177558,1,"",2023-10-20 04:01:38.0
A4845,4845,La Couronne,[Crnne],46.160074,-1.179512,1,"",2023-10-20 04:01:38.0
A4846,4846,La Grenouillère,[Greno],46.161034,-1.18163,1,"",2023-10-20 04:01:38.0
A4847,4847,Le Mail Clinique,[MClin],46.155663,-1.17004,1,"",2023-10-20 04:01:38.0
A4848,4848,Cottes Mailles,AYTRE Cottes Mailles,46.141515,-1.121114,1,"",2023-10-20 04:01:38.0
A4849,4849,Résistance,[Resis],46.169679,-1.18044,1,"",2023-10-20 04:01:38.0
A4850,4850,La Sauvagère,[Sauva],46.14081,-1.16258,1,"",2023-10-20 04:01:38.0
A4851,4851,La Sole,[LSole],46.143248,-1.15679,1,"",2023-10-20 04:01:38.0
A4852,4852,La Tour,[LTour],46.170514,-1.185318,1,"",2023-10-20 04:01:38.0
A4853,4853,Le Gué,[LeGue],46.176142,-1.139502,1,"",2023-10-20 04:01:38.0
A4854,4854,Le Lorrain,[Lorra],46.168959,-1.171952,1,"",2023-10-20 04:01:38.0
A4855,4855,Le Rail,[LRail],46.138645,-1.148968,1,"",2023-10-20 04:01:38.0
A4857,4857,Le Brun,[LBrun],46.170884,-1.181379,1,"",2023-10-20 04:01:38.0
A4858,4858,Tribunal d'Instance,[Tribu],46.167478,-1.166614,1,"",2023-10-20 04:01:38.0
A4859,4859,Les Frênes,[Frene],46.14293,-1.141256,1,"",2023-10-20 04:01:38.0
A4860,4860,Les Rivauds,[Rivau],46.17193,-1.201227,1,"",2023-10-20 04:01:38.0
A4861,4861,Les Treilles,AYTRE Les Treilles,46.14051,-1.115105,1,"",2023-10-20 04:01:38.0
A4863,4863,Luxembourg,[Luxem],46.169169,-1.178052,1,"",2023-10-20 04:01:38.0
A4866,4866,Missy,[Missy],46.163394,-1.168098,1,"",2023-10-20 04:01:38.0
A4867,4867,Montcalm,[Mtcal],46.163405,-1.216441,1,"",2023-10-20 04:01:38.0
A4868,4868,Montréal,[Mtrea],46.164157,-1.204388,1,"",2023-10-20 04:01:38.0
A4869,4869,Porte Saint-Nicolas (Motte-Rouge),[SNico],46.155664,-1.149094,1,"",2023-10-20 04:01:38.0
A4870,4870,Musée Maritime,[MuMar],46.149335,-1.150814,1,"",2023-10-20 04:01:38.0
A4872,4872,Oncor,[Oncor],46.167649,-1.195712,1,"",2023-10-20 04:01:38.0
A4873,4873,Philippe Vincent,[PhVin],46.154169,-1.17357,1,"",2023-10-20 04:01:38.0
A4874,4874,Place des Britanniques,[PBrit],46.148824,-1.144128,1,"",2023-10-20 04:01:38.0
A4875,4875,Plage de la Concurrence,[Plage],46.156199,-1.160976,1,"",2023-10-20 04:01:38.0
A4876,4876,Plage des Minimes,[PlMin],46.139961,-1.168872,1,"",2023-10-20 04:01:38.0
A4877,4877,Point du Jour,[PtJou],46.161269,-1.175573,1,"",2023-10-20 04:01:38.0
A4880,4880,Quatre Fages,[QFage],46.164596,-1.181205,1,"",2023-10-20 04:01:38.0
A4881,4881,Racine,[Racin],46.168187,-1.174448,1,"",2023-10-20 04:01:38.0
A4883,4883,Rond-Point de l'Europe,[RPEur],46.141483,-1.159367,1,"",2023-10-20 04:01:38.0
A4884,4884,Rue d'Yves,AYTRE Rue d'Yves,46.1412,-1.126886,1,"",2023-10-20 04:01:38.0
A4885,4885,Saint-Louis,[StLou],46.160002,-1.146077,1,"",2023-10-20 04:01:38.0
A4888,4888,Technoforum,[Techn],46.148341,-1.15378,1,"",2023-10-20 04:01:38.0
A4889,4889,Vaugouin,[Vgoin],46.165399,-1.190217,1,"",2023-10-20 04:01:38.0
A4890,4890,Vautreuil,[Vtreu],46.139831,-1.145037,1,"",2023-10-20 04:01:38.0
A4891,4891,Voltaire,[Volta],46.160105,-1.168395,1,"",2023-10-20 04:01:38.0
A4893,4893,Lavoisier,[Lavoi],46.152913,-1.126601,1,"",2023-10-20 04:01:38.0
A4894,4894,Petit Brouage,[PtBro],46.155911,-1.130799,1,"",2023-10-20 04:01:38.0
A4896,4896,André Garnerin,LA ROCHELLE - ANDRE GARNERIN,46.167576,-1.124384,1,"",2023-10-20 04:01:38.0
A4900,4900,Chemin des Rossignols,[ChRos],46.165409,-1.119329,1,"",2023-10-20 04:01:38.0
A4905,4905,Europe,[Europ],46.14148,-1.157151,1,"",2023-10-20 04:01:38.0
A4906,4906,Fromentin,[Frome],46.165267,-1.175685,1,"",2023-10-20 04:01:38.0
A4907-GRDG,4907,Gare La Rochelle (De Gaulle),[GarLR],46.1536525,-1.146565,1,"",2023-10-20 04:01:38.0
A4907-GRJ,4907,Gare La Rochelle (Joffre),[GarLR],46.1536455,-1.1455565,1,"",2023-10-20 04:01:38.0
A4909,4909,Jacques Charles,LA ROCHELLE Jacques Charles,46.165517,-1.123799,1,"",2023-10-20 04:01:38.0
A4912,4912,Le Lac,[LeLac],46.145904,-1.154467,1,"",2023-10-20 04:01:38.0
A4914,4914,Louis Guillet,[LGuil],46.169706,-1.183453,1,"",2023-10-20 04:01:38.0
A4915,4915,Maison de la Charente-Maritime,[MChar],46.138287,-1.152048,1,"",2023-10-20 04:01:38.0
A4916,4916,Maison de Retraite,[MRetr],46.167803,-1.115673,1,"",2023-10-20 04:01:38.0
A4917,4917,Moulin des Justices,[MJust],46.170496,-1.125318,1,"",2023-10-20 04:01:38.0
A4918,4918,Museum,[Museu],46.164911,-1.151488,1,"",2023-10-20 04:01:38.0
A4921,4921,Pierre Loti,[PiLot],46.163308,-1.176124,1,"",2023-10-20 04:01:38.0
A4924,4924,Port des Minimes,[PtMin],46.1407,-1.165499,1,"",2023-10-20 04:01:38.0
A4925,4925,Primevères,[Prime],46.168997,-1.130011,1,"",2023-10-20 04:01:38.0
A4927,4927,République,[Repub],46.140697,-1.142564,1,"",2023-10-20 04:01:38.0
A4929,4929,Schoelcher,[Schoe],46.15657,-1.126637,1,"",2023-10-20 04:01:38.0
A4930,4930,Ecole Lavoisier,LA ROCHELLE - ECOLE LAVOISIER,46.154379,-1.12731,1,"",2023-10-20 04:01:38.0
A4934,4934,Léon Jouhaux,LAGORD - LEON JOUHAUX,46.178545,-1.141656,1,"",2023-10-20 04:01:38.0
A4935,4935,Blériot,LAGORD Blériot,46.178763,-1.147748,1,"",2023-10-20 04:01:38.0
A4937,4937,Alizés,[Alize],46.175516,-1.155761,1,"",2023-10-20 04:01:38.0
A4938,4938,Bois d'Huré,LAGORD Bois d'Huré,46.189185,-1.14077,1,"",2023-10-20 04:01:38.0
A4942,4942,La Butte,[Butte],46.190786,-1.148309,1,"",2023-10-20 04:01:38.0
A4943,4943,La Descenderie,[Desce],46.176333,-1.13445,1,"",2023-10-20 04:01:38.0
A4944,4944,Georges Triaud,LAGORD - GEORGES TRIAUD,46.180184,-1.140464,1,"",2023-10-20 04:01:38.0
A4945,4945,La Mariennée,LAGORD - LA MARIENNEE,46.185106,-1.141711,1,"",2023-10-20 04:01:38.0
A4947,4947,Grand Mur,LAGORD - GRAND MUR,46.179191,-1.157799,1,"",2023-10-20 04:01:38.0
A4948,4948,L'Ebeaupin,LAGORD - L'EBEAUPIN,46.182597,-1.140647,1,"",2023-10-20 04:01:38.0
A4950,4950,Les Gonthières,[Gnthr],46.176777,-1.152755,1,"",2023-10-20 04:01:38.0
A4951,4951,Les Néfliers,[Nefli],46.182088,-1.163591,1,"",2023-10-20 04:01:38.0
A4952,4952,Les Pommiers,[Pommi],46.183448,-1.160245,1,"",2023-10-20 04:01:38.0
A4954,4954,Le Bassin,LAGORD Le Bassin,46.182446,-1.154999,1,"",2023-10-20 04:01:38.0
A4956,4956,Fief Nouveau,LAGORD - FIEF NOUVEAU,46.187548,-1.157519,1,"",2023-10-20 04:01:38.0
A4957,4957,François Viète,[FViet],46.192798,-1.15376,1,"",2023-10-20 04:01:38.0
A4958,4958,Jean Perrin,LAGORD - JEAN PERRIN,46.187494,-1.154519,1,"",2023-10-20 04:01:38.0
A4960,4960,Mairie de Lagord,LAGORD - MAIRIE,46.190148,-1.153426,1,"",2023-10-20 04:01:38.0
A4963,4963,Parc Aquatique,[PAqua],46.157194,-1.099348,1,"",2023-10-20 04:01:38.0
A4964,4964,Passy,[Passy],46.16152,-1.096491,1,"",2023-10-20 04:01:38.0
A4967,4967,Centre Commercial du Fief Rose,[CCFRo],46.17343,-1.1683,1,"",2023-10-20 04:01:38.0
A4969,4969,La Bourgne,[Bgne],46.162312,-1.092052,1,"",2023-10-20 04:01:38.0
A4970,4970,Joliot-Curie,[JoCur],46.157421,-1.107115,1,"",2023-10-20 04:01:38.0
A4971,4971,Billaud Varenne,[BiVar],46.152005,-1.121717,1,"",2023-10-20 04:01:38.0
A4972,4972,Blaise Pascal,[BlPas],46.159545,-1.106001,1,"",2023-10-20 04:01:38.0
A4973,4973,Claude Chappé,[ClCha],46.163767,-1.105933,1,"",2023-10-20 04:01:38.0
A4974,4974,Clos Margat,[CMgat],46.15655,-1.119933,1,"",2023-10-20 04:01:38.0
A4975,4975,Convention,[Conve],46.151381,-1.117892,1,"",2023-10-20 04:01:38.0
A4976,4976,Eglise de Périgny,[EPeri],46.15261,-1.108605,1,"",2023-10-20 04:01:38.0
A4977,4977,Frédéric Sauvage,[FrSau],46.161793,-1.108465,1,"",2023-10-20 04:01:38.0
A4978,4978,La Caillaude,[Caill],46.158271,-1.08227,1,"",2023-10-20 04:01:38.0
A4979,4979,La Vaurie,[Vauri],46.151548,-1.093863,1,"",2023-10-20 04:01:38.0
A4981,4981,Les Lilas,[Lilas],46.153129,-1.09996,1,"",2023-10-20 04:01:38.0
A4982,4982,Les Palombes,[Plbes],46.15227,-1.084826,1,"",2023-10-20 04:01:38.0
A4983,4983,Louis Lumière,[LLumi],46.162931,-1.106104,1,"",2023-10-20 04:01:38.0
A4985,4985,Paul Langevin,[PauLa],46.160774,-1.103556,1,"",2023-10-20 04:01:38.0
A4986,4986,Pommeraie,[Pmmer],46.154697,-1.095917,1,"",2023-10-20 04:01:38.0
A4987,4987,Robespierre,[Robes],46.156834,-1.122512,1,"",2023-10-20 04:01:38.0
A4988,4988,Stade de Périgny,[StdPe],46.155333,-1.084003,1,"",2023-10-20 04:01:38.0
A4990,4990,Alsace Lorraine,PUILBOREAU Alsace Lorraine,46.187056,-1.112876,1,"",2023-10-20 04:01:38.0
A4991,4991,Baillac,[Baill],46.18361,-1.117277,1,"",2023-10-20 04:01:38.0
A4996,4996,Beauregard,LA ROCHELLE Beauregard,46.167728,-1.1411,1,"",2023-10-20 04:01:38.0
A4998,4998,CIL,[CILPu] PUILBOREAU - CIL,46.182986,-1.120702,1,"",2023-10-20 04:01:38.0
A5000,5000,Rompsay,[Romps],46.167744,-1.11223,1,"",2023-10-20 04:01:38.0
A5001,5001,Château du Prieuré,[ChPri],46.172295,-1.147082,1,"",2023-10-20 04:01:38.0
A5003,5003,Cimetière de Saint-Eloi,[CimSE],46.163048,-1.129807,1,"",2023-10-20 04:01:38.0
A5004,5004,Dufresse,LA ROCHELLE - DUFRESSE,46.171496,-1.137254,1,"",2023-10-20 04:01:38.0
A5005,5005,Eglise de Puilboreau,[EglPu],46.185634,-1.11806,1,"",2023-10-20 04:01:38.0
A5006,5006,Electro,[Elect],46.170224,-1.146474,1,"",2023-10-20 04:01:38.0
A5007,5007,Fief de la Mare,PUILBOREAU - FIEF DE LA MARE,46.178164,-1.130573,1,"",2023-10-20 04:01:38.0
A5008,5008,Géraniums,[Geran],46.164408,-1.124376,1,"",2023-10-20 04:01:38.0
A5010,5010,Iris,[Iris],46.168062,-1.132603,1,"",2023-10-20 04:01:38.0
A5011,5011,La Motte,PUILBOREAU - LA MOTTE,46.183378,-1.096695,1,"",2023-10-20 04:01:38.0
A5012,5012,L'Abbaye,PUILBOREAU L'Abbaye,46.194617,-1.119104,1,"",2023-10-20 04:01:38.0
A5013,5013,Le Château,[Chtea],46.188087,-1.11758,1,"",2023-10-20 04:01:38.0
A5014,5014,Le Payaud,NIEUL/PUILBOREAU - LE PAYAUD,46.200729,-1.12466,1,"",2023-10-20 04:01:38.0
A5018,5018,Les Fléneaux,PUILBOREAU - LES FLENEAUX,46.181234,-1.113683,1,"",2023-10-20 04:01:38.0
A5019,5019,Les Grands Champs,[GraCh],46.190248,-1.115893,1,"",2023-10-20 04:01:38.0
A5022,5022,Lully,[Lully],46.160877,-1.129211,1,"",2023-10-20 04:01:38.0
A5026,5026,Patte d'Oie,[PatOi],46.166874,-1.136188,1,"",2023-10-20 04:01:38.0
A5028,5028,Soissons,[Soiss],46.175123,-1.143183,1,"",2023-10-20 04:01:38.0
A5030,5030,Le Treuil,[LeTre],46.17428,-1.127558,1,"",2023-10-20 04:01:38.0
A5032,5032,Belle Etoile,PUILBOREAU Belle Etoile,46.181461,-1.099394,1,"",2023-10-20 04:01:38.0
A5033,5033,La Moulinette,[Mlint],46.15216,-1.103723,1,"",2023-10-20 04:01:38.0
A5034,5034,Néchalier,[Necha],46.149515,-1.068802,1,"",2023-10-20 04:01:38.0
A5046,5046,14 Juillet,[14jui],46.152081,-1.124184,1,"",2023-10-20 04:01:38.0
A5047,5047,P+R Saint-Rogatien,[PRRog],46.148627,-1.062822,1,"",2023-10-20 04:01:38.0
A5225,5225,Loiré Le Moulin,VERINES Loiré Le Moulin,46.20932,-0.987974,1,"",2023-10-20 04:01:38.0
A5229,5229,La Panonnière,SAINT CHRISTOPHE La Panonnière,46.13221,-0.923431,1,"",2023-10-20 04:01:38.0
A55,55,Cimetière d'Angoulins,[CimAn] ANGOULINS Cimetière,46.107289,-1.105802,1,"",2023-10-20 04:01:38.0
A5507,5507,Marius Lacroix,LA ROCHELLE - MARIUS LACROIX,46.168762,-1.1449,1,"",2023-10-20 04:01:38.0
A5537,5537,Place de la Liberté,LA JARNE - PLACE DE LA LIBERTE,46.127848,-1.071997,1,"",2023-10-20 04:01:38.0
A5538,5538,Le Collet,SALLES SUR MER - LE COLLET,46.099924,-1.054028,1,"",2023-10-20 04:01:38.0
A5557,5557,Les Tamaris,ESNANDES - TAMARIS,46.246294,-1.118788,1,"",2023-10-20 04:01:38.0
A57,57,Mille Fleurs,[MilFl] ANGOULINS Mille Fleurs,46.103615,-1.107328,1,"",2023-10-20 04:01:38.0
A5701,5701,Belle Croix,DOMPIERRE Belle Croix,46.179623,-1.048725,1,"",2023-10-20 04:01:38.0
A5702,5702,Chagnolet les Frênes,[ChaFr],46.174409,-1.09229,1,"",2023-10-20 04:01:38.0
A5703,5703,Chagnolet Rompsay,[ChaRo],46.17127,-1.094505,1,"",2023-10-20 04:01:38.0
A5704,5704,Garenne,DOMPIERRE - GARENNE,46.186199,-1.068818,1,"",2023-10-20 04:01:38.0
A5705,5705,Les Grelettes,DOMPIERRE - LES GRELETTES,46.185981,-1.060393,1,"",2023-10-20 04:01:38.0
A5706,5706,Mairie de Dompierre,DOMPIERRE-SUR-MER Mairie,46.189342,-1.062098,1,"",2023-10-20 04:01:38.0
A5707,5707,Salle des Fêtes d'Esnandes,ESNANDES - SALLE DES FETES,46.25202,-1.114525,1,"",2023-10-20 04:01:38.0
A5708,5708,Champlain,DOMPIERRE Champlain,46.184422,-1.065138,1,"",2023-10-20 04:01:38.0
A5711,5711,ZAC de l'Aubépin,SALLES SUR MER - ZAC DE L'AUBEPIN,46.121191,-1.038026,1,"",2023-10-20 04:01:38.0
A5712,5712,Bourgogne,[Bgogn],46.17238,-1.124538,1,"",2023-10-20 04:01:38.0
A5713,5713,Clinique,[Clini],46.173699,-1.127072,1,"",2023-10-20 04:01:38.0
A5714,5714,Château d'Huré,LAGORD Château d'Huré,46.188025,-1.140262,1,"",2023-10-20 04:01:38.0
A5715,5715,Le Rayon d'Or,[RayOr],46.19143,-1.14723,1,"",2023-10-20 04:01:38.0
A5717,5717,Mairie de Marsilly,MARSILLY Mairie,46.229903,-1.134882,1,"",2023-10-20 04:01:38.0
A5718,5718,Moulin d'Amour de Marsilly,MARSILLY - MOULIN D'AMOUR,46.230738,-1.148222,1,"",2023-10-20 04:01:38.0
A5721,5721,Le Nalbret,NIEUL - LE NALBRET,46.200706,-1.167003,1,"",2023-10-20 04:01:38.0
A5722,5722,Les Allées Vieljeux,[AlVie],46.206115,-1.160337,1,"",2023-10-20 04:01:38.0
A5723,5723,Mairie de Nieul-sur-Mer,[MaiNi],46.209367,-1.163608,1,"",2023-10-20 04:01:38.0
A5725,5725,Allemagne,[Allem],46.177897,-1.121694,1,"",2023-10-20 04:01:38.0
A5727,5727,Treuil Gras,PUILBOREAU - TREUIL GRAS,46.17901,-1.108391,1,"",2023-10-20 04:01:38.0
A5729,5729,La Roche Bertin,STE SOULLE - ROCHE BERTIN,46.188574,-1.016473,1,"",2023-10-20 04:01:38.0
A5730,5730,Les Guillaudes,STE SOULLE - LES GUILLAUDES,46.190015,-1.023035,1,"",2023-10-20 04:01:38.0
A5731,5731,Pont de Grolleau,STE SOULLE - PONT DE GROLLEAU,46.195401,-1.052751,1,"",2023-10-20 04:01:38.0
A5732,5732,Pont de la Fumate,STE SOULLE - PONT LA FUMATE,46.188948,-1.051945,1,"",2023-10-20 04:01:38.0
A5733,5733,Les Monrois,SALLES SUR MER - LES MONROIS,46.106702,-1.059571,1,"",2023-10-20 04:01:38.0
A5734,5734,Cramahé,LA JARNE - CRAMAHE,46.11137,-1.067493,1,"",2023-10-20 04:01:38.0
A5735,5735,L'Aumonerie,SALLES SUR MER L'Aumonerie,46.117375,-1.026103,1,"",2023-10-20 04:01:38.0
A5736,5736,Le Moulin de Plaisance,LA JARNE - LE MOULIN DE PLAISANCE,46.112468,-1.051995,1,"",2023-10-20 04:01:38.0
A5786,5786,Champs Maillard,ANGOULINS Champs Maillard,46.10358,-1.078537,1,"",2023-10-20 04:01:38.0
A5795,5795,Gare SNCF d'Angoulins-sur-Mer,ANGOULINS - Halte Ferroviaire,46.107794,-1.114883,1,"",2023-10-20 04:01:38.0
A5821,5821,Savoie,[Savoi],46.15709,-1.185025,1,"",2023-10-20 04:01:38.0
A5830,5830,Croix Fort,CLAVETTE - CROIX FORT,46.136433,-1.014884,1,"",2023-10-20 04:01:38.0
A5831,5831,Fief Chapitre,LA JARRIE - FIEF CHAPITRE,46.134949,-1.010074,1,"",2023-10-20 04:01:38.0
A5838,5838,J.Toussaint,L'HOUMEAU - J.TOUSSAINT,46.190038,-1.183489,1,"",2023-10-20 04:01:38.0
A5839,5839,Thalasso,[Thala] CHATELAILLON-PLAGE - THALASSO,46.058865,-1.088195,1,"",2023-10-20 04:01:38.0
A5841,5841,Laleu Les Douanes,[LDoua],46.175012,-1.19688,1,"",2023-10-20 04:01:38.0
A5854,5854,Beaulieu Sud,[BeSud],46.173849,-1.119852,1,"",2023-10-20 04:01:38.0
A5876,5876,Stade de Thairé,THAIRE - STADE,46.074248,-0.997889,1,"",2023-10-20 04:01:38.0
A59,59,Saint-Jean-des-Sables,[StJSa] ANGOULINS Saint-Jean-des-Sables,46.094965,-1.100012,1,"",2023-10-20 04:01:38.0
A5913,5913,Schuman,[Scman],46.16579,-1.178359,1,"",2023-10-20 04:01:38.0
A5914,5914,Grandes Varennes,[GdVar],46.169013,-1.17758,1,"",2023-10-20 04:01:38.0
A5915,5915,Courteras,AYTRE Courteras,46.133972,-1.108271,1,"",2023-10-20 04:01:38.0
A5916,5916,La Plouzière,LAGORD - LA PLOUZIERE,46.186229,-1.165826,1,"",2023-10-20 04:01:38.0
A5938,5938,Curie-Sports,SAINT-XANDRE - Curie-Sports,46.206056,-1.092723,1,"",2023-10-20 04:01:38.0
A5939,5939,Curie-Plumier,SAINT-XANDRE - Curie-Plumier,46.202874,-1.09322,1,"",2023-10-20 04:01:38.0
A5948,5948,Eglise d'Yves,YVES Eglise,46.01759,-1.048344,1,"",2023-10-20 04:01:38.0
A5954,5954,Mairie de Clavette,CLAVETTE Mairie,46.138981,-1.027261,1,"",2023-10-20 04:01:38.0
A60,60,Stade d'Angoulins,[StdAn] ANGOULINS Stade,46.106509,-1.107715,1,"",2023-10-20 04:01:38.0
A6055,6055,Wilson,[Wlson],46.160498,-1.188276,1,"",2023-10-20 04:01:38.0
A6058,6058,Baie de Port-Neuf,[BPNeu],46.154505,-1.18411,1,"",2023-10-20 04:01:38.0
A6059,6059,ZI Chef de Baie,[ZCBai],46.159584,-1.199116,1,"",2023-10-20 04:01:38.0
A6060,6060,Plage Chef de Baie,[PlgCB],46.150295,-1.205763,1,"",2023-10-20 04:01:38.0
A6061,6061,Québec,[Quebe],46.153349,-1.203781,1,"",2023-10-20 04:01:38.0
A6063,6063,Fief des Jarries,[FJarr],46.193613,-1.156227,1,"",2023-10-20 04:01:38.0
A6069,6069,Jonchery,[Jonch] CHATELAILLON-PLAGE - JONCHERY,46.068861,-1.09052,1,"",2023-10-20 04:01:38.0
A6070,6070,La Rosière,[Rsier] CHATELAILLON-PLAGE - LA ROSIERE,46.0667,-1.087327,1,"",2023-10-20 04:01:38.0
A6071,6071,Beauséjour,[Bsejo] CHATELAILLON-PLAGE Beauséjour,46.077998,-1.092277,1,"",2023-10-20 04:01:38.0
A6072,6072,Les Sables,[Sable] CHATELAILLON-PLAGE - LES SABLES,46.084173,-1.093101,1,"",2023-10-20 04:01:38.0
A6075,6075,Les Dunes,CHATELAILLON-PLAGE - LES DUNES,46.065992,-1.091431,1,"",2023-10-20 04:01:38.0
A6076,6076,Saint-Marsault,[SMars] CHATELAILLON-PLAGE Saint-Marsaul,46.075417,-1.090277,1,"",2023-10-20 04:01:38.0
A6077,6077,Angoute,[Angou] CHATELAILLON-PLAGE Angoute,46.057977,-1.082703,1,"",2023-10-20 04:01:38.0
A6078,6078,Jardins du Gô,NIEUL - JARDINS DU GÔ,46.210108,-1.15727,1,"",2023-10-20 04:01:38.0
A6079,6079,Les Coureilles,[Crlle],46.157709,-1.088867,1,"",2023-10-20 04:01:38.0
A6080,6080,Salle Omnisports,[SOmni],46.15542,-1.092571,1,"",2023-10-20 04:01:38.0
A6081,6081,Canal de Rompsay,[CanRo],46.166952,-1.109326,1,"",2023-10-20 04:01:38.0
A6082,6082,Quatre Chevaliers,[4Chev],46.154785,-1.111387,1,"",2023-10-20 04:01:38.0
A6083,6083,Espace Commercial,[EsCom],46.174977,-1.116527,1,"",2023-10-20 04:01:38.0
A6084,6084,18 Juin,[18jui],46.176041,-1.112756,1,"",2023-10-20 04:01:38.0
A6085,6085,Beaulieu Centre,[BeCen],46.177505,-1.106521,1,"",2023-10-20 04:01:38.0
A6087,6087,Malemort,PUILBOREAU - MALEMORT,46.177803,-1.114436,1,"",2023-10-20 04:01:38.0
A6088,6088,Les Fortines,STE SOULLE - LES FORTINES,46.184465,-1.04442,1,"",2023-10-20 04:01:38.0
A6089,6089,Chemin de la Ville,STE SOULLE - CHEMIN DE LA VILLE,46.183241,-1.009776,1,"",2023-10-20 04:01:38.0
A6092,6092,Victor Hugo,L'HOUMEAU Victor Hugo,46.186394,-1.19082,1,"",2023-10-20 04:01:38.0
A6103,6103,Gare d'Aytré,[GaAyt],46.127308,-1.127705,1,"",2023-10-20 04:01:38.0
A6104,6104,Porte Dauphine,[PDaup],46.167313,-1.152875,1,"",2023-10-20 04:01:38.0
A6350,6350,Collège Marc Chagall,DOMPIERRE - COLLEGE MARC CHAGALL,46.188668,-1.058008,1,"",2023-10-20 04:01:38.0
A6409,6409,Eglise de Vérines,VERINES Eglise,46.193762,-0.967955,1,"",2023-10-20 04:01:38.0
A6508,6508,Stade de Vérines,VERINES Stade,46.196214,-0.97208,1,"",2023-10-20 04:01:38.0
A6533,6533,Eglise de Marsilly,MARSILLY - EGLISE,46.230283,-1.138157,1,"",2023-10-20 04:01:38.0
A6534,6534,Grand Large,NIEUL - GRAND LARGE,46.201762,-1.175116,1,"",2023-10-20 04:01:38.0
A6547,6547,Grammont,PUILBOREAU - GRAMMONT,46.185708,-1.09881,1,"",2023-10-20 04:01:38.0
A6548,6548,Fief des Prises,ST SOULLE - FIEF DES PRISES,46.203159,-1.026247,1,"",2023-10-20 04:01:38.0
A6549,6549,La Chevalerie,STE SOULLE - LA CHEVALERIE,46.190675,-1.018006,1,"",2023-10-20 04:01:38.0
A6550,6550,La Godinerie,ST XANDRE - LA GODINERIE,46.213342,-1.070455,1,"",2023-10-20 04:01:38.0
A6566,6566,Val Pastour,ST MEDARD - VAL PASTOUR,46.158707,-0.976531,1,"",2023-10-20 04:01:38.0
A6579,6579,Libération,DOMPIERRE Libération,46.192722,-1.057923,1,"",2023-10-20 04:01:38.0
A6580,6580,Les Tourterelles,PERIGNY - LES TOURTERELLES,46.150174,-1.089917,1,"",2023-10-20 04:01:38.0
A6620,6620,Le Pressoir,PUILBOREAU - LE PRESSOIR,46.181695,-1.123647,1,"",2023-10-20 04:01:38.0
A6652,6652,Athènes,[Athen],46.165915,-1.183248,1,"",2023-10-20 04:01:38.0
A6656,6656,Flandres - Lycée Vieljeux,LAGORD Flandres,46.177933,-1.150349,1,"",2023-10-20 04:01:38.0
A6657,6657,P+R Les Greffières,[PRGre],46.192227,-1.146408,1,"",2023-10-20 04:01:38.0
A6658,6658,Les Greffières,[Grffi],46.189841,-1.147511,1,"",2023-10-20 04:01:38.0
A6691,6691,La Cossarderie,PUILBOREAU - LA COSSARDERIE,46.184926,-1.095527,1,"",2023-10-20 04:01:38.0
A6838,6838,Puyvineux,SAINT-CHRISTOPHE Puyvineux,46.127037,-0.984275,1,"",2023-10-20 04:01:38.0
A6839,6839,France,[Frnce],46.177073,-1.117133,1,"",2023-10-20 04:01:38.0
A6840,6840,Mairie d'Angoulins,ANGOULINS Mairie,46.106001,-1.111267,1,"",2023-10-20 04:01:38.0
A6841,6841,Barbedette,[Barbe],46.132072,-1.118638,1,"",2023-10-20 04:01:38.0
A6842,6842,Marais Doux,[MaDou],46.127231,-1.122307,1,"",2023-10-20 04:01:38.0
A6846,6846,Bellevue,[Blvue] CHATELAILLON-PLAGE Bellevue,46.056205,-1.087234,1,"",2023-10-20 04:01:38.0
A6847,6847,André Charrier,[AnCha],46.190525,-1.157444,1,"",2023-10-20 04:01:38.0
A6850,6850,Les Charmes,PERIGNY Les Charmes,46.171325,-1.107338,1,"",2023-10-20 04:01:38.0
A6851,6851,Les Vallées,PERIGNY - LES VALLEES,46.169987,-1.106358,1,"",2023-10-20 04:01:38.0
A6852,6852,Jean-Paul Sartre,[JPSar],46.153846,-1.116394,1,"",2023-10-20 04:01:38.0
A6856,6856,Remparts,[Rempa],46.1584,-1.157555,1,"",2023-10-20 04:01:38.0
A6857,6857,Annette Epaud,[AEpau],46.161558,-1.177837,1,"",2023-10-20 04:01:38.0
A6859,6859,Agrocéan,[Agroc],46.150269,-1.208606,1,"",2023-10-20 04:01:38.0
A6860,6860,Port de Pêche,[PPech],46.149408,-1.220466,1,"",2023-10-20 04:01:38.0
A6861,6861,Les Vanneaux,[Vanne],46.186942,-1.158886,1,"",2023-10-20 04:01:38.0
A6862,6862,Avenue de Lagord,[AvLag],46.184244,-1.158672,1,"",2023-10-20 04:01:38.0
A6863,6863,Collège André Malraux,CHATELAILLON-PLAGE - COLLEGE ANDRE MALRA,46.079761,-1.087792,1,"",2023-10-20 04:01:38.0
A6864,6864,Normandin,[Norma],46.141666,-1.139524,1,"",2023-10-20 04:01:38.0
A6914,6914,Georges Musset,THAIRE - GEORGES MUSSET,46.073498,-1.004919,1,"",2023-10-20 04:01:38.0
A6929,6929,Mistral,LA ROCHELLE - MISTRAL,46.169579,-1.13874,1,"",2023-10-20 04:01:38.0
A6930,6930,Maquis,LA ROCHELLE - MAQUIS,46.173338,-1.135296,1,"",2023-10-20 04:01:38.0
A6939,6939,Moulin d'Amour de La Jarrie,LA JARRIE - MOULIN D'AMOUR,46.124217,-1.011415,1,"",2023-10-20 04:01:38.0
A6940,6940,Les Deux Moulins,LA JARRIE Les Deux Moulins,46.132326,-1.01367,1,"",2023-10-20 04:01:38.0
A6942,6942,Rue du Poteau,[RPote],46.164944,-1.109747,1,"",2023-10-20 04:01:38.0
A6946,6946,La Fondelay,THAIRE - LA FONDELAY,46.068289,-0.98416,1,"",2023-10-20 04:01:38.0
A6964,6964,Eglise de Salles sur Mer,SALLES SUR MER - EGLISE,46.104432,-1.052492,1,"",2023-10-20 04:01:38.0
A7004,7004,La Sirène,[Siren],46.160736,-1.216369,1,"",2023-10-20 04:01:38.0
A7006,7006,Les Aigrettes,[Aigre],46.159415,-1.087333,1,"",2023-10-20 04:01:38.0
A7012,7012,Les Fleurs,DOMPIERRE - LES FLEURS,46.186975,-1.070096,1,"",2023-10-20 04:01:38.0
A7046,7046,Les Moindreaux,MARSILLY - LES MOINDREAUX,46.239833,-1.123083,1,"",2023-10-20 04:01:38.0
A7059,7059,Les Peupliers,[Peupl] LA ROCHELLE - LES PEUPLIERS,46.144012,-1.138334,1,"",2023-10-20 04:01:38.0
A7060,7060,Cimetière Paysager,[CimPa],46.173736,-1.179527,1,"",2023-10-20 04:01:38.0
A719,719,Les Bouchôleurs,[Bouch] CHATELAILLON-PLAGE Les Bouchôleu,46.053368,-1.082977,1,"",2023-10-20 04:01:38.0
A7203,7203,Plaine des Jeux,[PJeux],46.155495,-1.190853,1,"",2023-10-20 04:01:38.0
A7237,7237,Monsidun,L'HOUMEAU - MONSIDUN,46.184206,-1.189119,1,"",2023-10-20 04:01:38.0
A7238,7238,Mitterrand,L'HOUMEAU - MITTERRAND,46.185892,-1.185589,1,"",2023-10-20 04:01:38.0
A7239,7239,Place des Poètes,L'HOUMEAU - PLACE DES POETES,46.187678,-1.185999,1,"",2023-10-20 04:01:38.0
A724,724,Chêne Vert,CHATELAILLON-PLAGE - CHENE VERT,46.077368,-1.084306,1,"",2023-10-20 04:01:38.0
A7254,7254,Les Rouillons,[Rouil] PUILBOREAU - LES ROUILLONS,46.180628,-1.124613,1,"",2023-10-20 04:01:38.0
A7256,7256,Les Sauniers,[LSaun],46.161204,-1.138596,1,"",2023-10-20 04:01:38.0
A7261,7261,Les Abricotiers,LAGORD Les Abricotiers,46.180552,-1.158917,1,"",2023-10-20 04:01:38.0
A7282,7282,Mairie de Vérines,VERINES Mairie,46.192284,-0.965189,1,"",2023-10-20 04:01:38.0
A7283,7283,Le Verger,ST MEDARD - LE VERGER,46.158382,-0.970903,1,"",2023-10-20 04:01:38.0
A7287,7287,Port Louis,[PoLou],46.154438,-1.096962,1,"",2023-10-20 04:01:38.0
A730,730,Office de Tourisme,CHATELAILLON-PLAGE - OFFICE DE TOURISME,46.076917,-1.087594,1,"",2023-10-20 04:01:38.0
A7361,7361,Pierre de Coubertin,LA JARNE - PIERRE DE COUBERTIN,46.124423,-1.072877,1,"",2023-10-20 04:01:38.0
A7362,7362,Aristide Bergès,[ABerg],46.162441,-1.100292,1,"",2023-10-20 04:01:38.0
A7363,7363,Vaucanson,[Vauca],46.164782,-1.101958,1,"",2023-10-20 04:01:38.0
A7364,7364,ZI de Périgny,[ZIPer],46.159061,-1.101698,1,"",2023-10-20 04:01:38.0
A7442,7442,Lac de Port-Neuf,[LPNeu],46.153959,-1.188803,1,"",2023-10-20 04:01:38.0
A7445,7445,La Richarderie,SALLES SUR MER - LA RICHARDERIE,46.117081,-1.049349,1,"",2023-10-20 04:01:38.0
A7446,7446,Fief des Greffières,LAGORD - FIEF DES GREFFIERES,46.189774,-1.144358,1,"",2023-10-20 04:01:38.0
A7447,7447,Stade de Bourgneuf,BOURGNEUF Stade,46.170243,-1.020162,1,"",2023-10-20 04:01:38.0
A7448,7448,La Coie,PERIGNY - LA COIE,46.155003,-1.088149,1,"",2023-10-20 04:01:38.0
A7523,7523,Les Vignes Pourpres,[VigPo],46.181,-1.116162,1,"",2023-10-20 04:01:38.0
A8001,8001,Aristide Briand,[AriBr] CHATELAILLON-PLAGE Aristide Bria,46.077582,-1.088483,1,"",2023-10-20 04:01:38.0
A8003,8003,Corne Neuve,Dompierre - Corne Neuve,46.174279,-1.064764,1,"",2023-10-20 04:01:38.0
A8004,8004,Dulin,[Dulin] CHATELAILLON-PLAGE Dulin,46.054722,-1.079234,1,"",2023-10-20 04:01:38.0
A8005,8005,La Jarrie Gare SNCF,LA JARRIE - Gare SNCF,46.120016,-1.023733,1,"",2023-10-20 04:01:38.0
A8007,8007,Stade de Saint Christophe,SAINT CHRISTOPHE Stade,46.141579,-0.943643,1,"",2023-10-20 04:01:38.0
A8008,8008,Surcouf,[Surco] CHATELAILLON-PLAGE Surcouf,46.080772,-1.09069,1,"",2023-10-20 04:01:38.0
A8018,8018,Arsenal,[Arsen],46.160208,-1.147202,1,"",2023-10-20 04:01:38.0
A8019,8019,B. Giraudeau,[Girau],46.167999,-1.185085,1,"",2023-10-20 04:01:38.0
A8020,8020,Cognehors,[Cogne],46.167128,-1.140007,1,"",2023-10-20 04:01:38.0
A8021,8021,Cordeliers,[Corde],46.16526,-1.142875,1,"",2023-10-20 04:01:38.0
A8022,8022,Dame Hilaire,[DaHil],46.16728,-1.177642,1,"",2023-10-20 04:01:38.0
A8024,8024,Gambetta,[Gambe],46.161769,-1.146219,1,"",2023-10-20 04:01:38.0
A8025,8025,Ravel,[Ravel],46.163927,-1.126635,1,"",2023-10-20 04:01:38.0
A8028,8028,Saint-Saëns,[Saens],46.161246,-1.13416,1,"",2023-10-20 04:01:38.0
A8029,8029,Beaulieu Plus,[BePlu],46.176538,-1.109798,1,"",2023-10-20 04:01:38.0
A8030,8030,P+R Beaulieu,[BeP+R],46.179163,-1.103505,1,"",2023-10-20 04:01:38.0
A8031,8031,Les Frigauderies,Sainte-Soulle - Les Frigauderies,46.183925,-1.003287,1,"",2023-10-20 04:01:38.0
A8032,8032,Salle Polyvalente de Yves,YVES - Salle Polyvalente,46.042237,-1.045056,1,"",2023-10-20 04:01:38.0
A8033,8033,Les Ecuyers,CHATELAILLON-PLAGE Les Ecuyers,46.073482,-1.081974,1,"",2023-10-20 04:01:38.0
A8034,8034,La Chartrie,BOURGNEUF La Chartrie,46.170576,-1.023187,1,"",2023-10-20 04:01:38.0
A8035,8035,Moulin de la Pierre,SAINT-VIVIEN - Moulin de la Pierre,46.075531,-1.033619,1,"",2023-10-20 04:01:38.0
A8037,8037,Fief Retaillé,LA JARRIE - FIEF RETAILLE,46.117937,-1.00574,1,"",2023-10-20 04:01:38.0
A840,840,Les Massardes,CLAVETTE - LES MASSARDES,46.140452,-1.033438,1,"",2023-10-20 04:01:38.0
P1000,1000,Arsenal,[ArsenBe] Abri,46.160208,-1.147202,0,A8018,2023-10-20 04:01:38.0
P1001,1001,Banque de France,[BanFrCB] ASpln,46.158808,-1.156369,0,A4813,2023-10-20 04:01:38.0
P1002,1002,Banque de France,[BanFrLg] Abri,46.159174,-1.156119,0,A4813,2023-10-20 04:01:38.0
P1003,1003,Cordeliers,[CordeBe] ASpln,46.165244,-1.14275,0,A8021,2023-10-20 04:01:38.0
P1004,1004,Cordeliers,[CordeMn] ASpln,46.165277,-1.143,0,A8021,2023-10-20 04:01:38.0
P1005,1005,Dames Blanches (St-Sauveur),[DamBlBo] ASpln,46.158449,-1.150672,0,A4589-DBSS,2023-10-20 04:01:38.0
P1006,1006,Dames Blanches (Quai Valin),[DamBlLg] ASpln,46.157963,-1.150502,0,A4589-DBQV,2023-10-20 04:01:38.0
P1007,1007,Dames Blanches (Maubec),[DamBlMr] Abri,46.158997,-1.149569,0,A4589-DBM,2023-10-20 04:01:38.0
P1008,1008,Dames Blanches (Louis Durand),[DamBlVi] Abri,46.158594,-1.148313,0,A4589-DBLD,2023-10-20 04:01:38.0
P1009,1009,Delayant,[DelayBo] Abri,46.164536,-1.155713,0,A4501,2023-10-20 04:01:38.0
P1010,1010,Delayant,[DelayLg] ASpln,46.164491,-1.155541,0,A4501,2023-10-20 04:01:38.0
P1011,1011,Dupaty,[DupatBo] Cadre,46.160127,-1.152872,0,A2293,2023-10-20 04:01:38.0
P1012,1012,Esplanade des Parcs,[EsParBo] Abri,46.166022,-1.153769,0,A4502,2023-10-20 04:01:38.0
P1014,1014,Gambetta,[GambeCB] ASpln,46.161769,-1.146219,0,A8024,2023-10-20 04:01:38.0
P1015,1015,Gare La Rochelle (Joffre),[GarLRAy] Abri,46.153494,-1.145938,0,A4907-GRJ,2023-10-20 04:01:38.0
P1016,1016,Gare La Rochelle (De Gaulle),[GarLRBo] Abri,46.153544,-1.146472,0,A4907-GRDG,2023-10-20 04:01:38.0
P1017,1017,Gare La Rochelle (De Gaulle),[GarLRLg] Abri,46.153761,-1.146658,0,A4907-GRDG,2023-10-20 04:01:38.0
P1018,1018,Gare La Rochelle (Joffre),[GarLRLP] Abri,46.153797,-1.145175,0,A4907-GRJ,2023-10-20 04:01:38.0
P1021,1021,Glacière,[GlaciSX] ASpln,46.1667,-1.150702,0,A4677,2023-10-20 04:01:38.0
P1022,1022,Grosse Horloge,[GrHorLg] ASpln,46.158108,-1.153461,0,A4459,2023-10-20 04:01:38.0
P1023,1023,Hôpital,[HopitAy] Abri,46.158194,-1.143913,0,A2265,2023-10-20 04:01:38.0
P1024,1024,Hôpital,[HopitLP] ASpln,46.1585,-1.145183,0,A2265,2023-10-20 04:01:38.0
P1025,1025,Hôpital,[HopitMr] Abri,46.158419,-1.145463,0,A2265,2023-10-20 04:01:38.0
P1026,1026,Hôpital,[HopitVi] Abri,46.1582,-1.14553,0,A2265,2023-10-20 04:01:38.0
P1028,1028,Museum,[MuseuSX] ASpln,46.164911,-1.151488,0,A4918,2023-10-20 04:01:38.0
P1029,1029,Orbigny,[OrbigCB] ASpln,46.164519,-1.150138,0,A4826,2023-10-20 04:01:38.0
P1030,1030,Orbigny,[OrbigPe] Abri,46.164361,-1.149647,0,A4826,2023-10-20 04:01:38.0
P1031,1031,Piscine,[PisciBo] Abri,46.168944,-1.152261,0,A4503,2023-10-20 04:01:38.0
P1032,1032,Piscine,[PisciLg] Abri,46.170244,-1.150874,0,A4503,2023-10-20 04:01:38.0
P1033,1033,Place de Verdun,[PdVH1] ASpln + Abri,46.1624,-1.15465,0,A2282,2023-10-20 04:01:38.0
P1034,1034,Place de Verdun,[PdVH2] Abri,46.162277,-1.153955,0,A2282,2023-10-20 04:01:38.0
P1035,1035,Place de Verdun,[PdV_R] AScen,46.162161,-1.153841,0,A2282,2023-10-20 04:01:38.0
P1036,1036,Place de Verdun,[PdV_W] ASpln,46.162002,-1.153116,0,A2282,2023-10-20 04:01:38.0
P1037,1037,Place de Verdun,[PdV_Y] ASpln,46.161933,-1.153652,0,A2282,2023-10-20 04:01:38.0
P1038,1038,Porte Dauphine,[PDaupLg] Abri,46.167313,-1.152875,0,A6104,2023-10-20 04:01:38.0
P1039,1039,Porte de Cougnes,[PCougBe] Abri,46.163066,-1.145855,0,A4820,2023-10-20 04:01:38.0
P1040,1040,Porte de Cougnes,[PCougMn] Abri,46.162891,-1.145644,0,A4820,2023-10-20 04:01:38.0
P1042,1042,Porte Saint-Nicolas (Motte-Rouge),[SNicoBo] Abri,46.155538,-1.149002,0,A4869,2023-10-20 04:01:38.0
P1043,1043,Porte Saint-Nicolas (Motte-Rouge),[SNicoLg] Abri,46.155791,-1.149186,0,A4869,2023-10-20 04:01:38.0
P1047,1047,Remparts,[RempaCB] Abri,46.1584,-1.157555,0,A6856,2023-10-20 04:01:38.0
P1048,1048,Saint-Louis,[StLouMn] ASpln,46.160002,-1.146077,0,A4885,2023-10-20 04:01:38.0
P1050,1050,Dames Blanches (St-Nicolas),[DamBlBe] Abri,46.158436,-1.149666,0,A4589-DBSN,2023-10-20 04:01:38.0
P1057,1057,Place de Verdun,Quai J,46.162029,-1.154124,0,A2282,2023-10-20 04:01:38.0
P1058,1058,Place de Verdun,Quai K,46.162022,-1.154046,0,A2282,2023-10-20 04:01:38.0
P1059,1059,Place de Verdun,Quai L,46.162006,-1.153941,0,A2282,2023-10-20 04:01:38.0
P1060,1060,Place de Verdun,[PdV_M] Quai M,46.161989,-1.153831,0,A2282,2023-10-20 04:01:38.0
P1061,1061,Place de Verdun,Quai N,46.161971,-1.153774,0,A2282,2023-10-20 04:01:38.0
P1062,1062,Place de Verdun,Quai O,46.161968,-1.153699,0,A2282,2023-10-20 04:01:38.0
P1063,1063,Place de Verdun,Quai P,46.161959,-1.153619,0,A2282,2023-10-20 04:01:38.0
P1100,1100,Aéroport,[AeropAy] Abri,46.175622,-1.195444,0,A4807,2023-10-20 04:01:38.0
P1101,1101,Agrocéan,[AgrocCB] AScen,46.150383,-1.20878,0,A6859,2023-10-20 04:01:38.0
P1102,1102,Agrocéan,[AgrocPe] AScln,46.150155,-1.208433,0,A6859,2023-10-20 04:01:38.0
P1103,1103,Air Liquide,[AirLiAy] Abri,46.161605,-1.203241,0,A4808,2023-10-20 04:01:38.0
P1104,1104,Chirons Longs,[ChiLoLP] ASpln,46.163947,-1.207988,0,A4818,2023-10-20 04:01:38.0
P1105,1105,Chirons Longs,[ChiLoPV] AScen,46.163902,-1.207988,0,A4818,2023-10-20 04:01:38.0
P1106,1106,Cité,[CiteAy] Abri,46.166388,-1.19115,0,A4819,2023-10-20 04:01:38.0
P1107,1107,Cité,[CiteLl] ASpln,46.166161,-1.189755,0,A4819,2023-10-20 04:01:38.0
P1108,1108,Colibri,[ClbriAy] Abri,46.169869,-1.195291,0,A4823,2023-10-20 04:01:38.0
P1109,1109,Duquesne,[DuqueLP] Abri,46.163724,-1.211322,0,A4827,2023-10-20 04:01:38.0
P1110,1110,Duquesne,[DuquePV] AScen,46.163655,-1.211269,0,A4827,2023-10-20 04:01:38.0
P1111,1111,Eglise de Laleu,[EglLlLl] ASpln,46.170283,-1.203019,0,A4830,2023-10-20 04:01:38.0
P1112,1112,Eugène Dor,[EugDoAy] Abri,46.161347,-1.207283,0,A4832,2023-10-20 04:01:38.0
P1113,1113,Frigo,[FrigoAy] Abri,46.160911,-1.213347,0,A4835,2023-10-20 04:01:38.0
P1114,1114,Jacques Henry,[JHenrAy] Abri,46.164608,-1.198069,0,A4837,2023-10-20 04:01:38.0
P1115,1115,Jacques Henry,[JHenrLP] ASpln,46.164652,-1.198388,0,A4837,2023-10-20 04:01:38.0
P1118,1118,La Sirène,[SirenAy] Abri,46.160736,-1.216369,0,A7004,2023-10-20 04:01:38.0
P1119,1119,Laleu Les Douanes,[LDouaAy] PP RTCR,46.174983,-1.197105,0,A5841,2023-10-20 04:01:38.0
P1120,1120,Laleu Les Douanes,[LDouaLl] ASpln,46.175041,-1.196655,0,A5841,2023-10-20 04:01:38.0
P1121,1121,Laleu Sports,[LSporAy] Abri,46.164377,-1.200566,0,A2272,2023-10-20 04:01:38.0
P1122,1122,Laleu Sports,[LSporLP] ASpln,46.164449,-1.200722,0,A2272,2023-10-20 04:01:38.0
P1123,1123,Les Rivauds,[RivauLl] Abri,46.17193,-1.201227,0,A4860,2023-10-20 04:01:38.0
P1125,1125,Montcalm,[MtcalLP] Abri,46.163405,-1.216441,0,A4867,2023-10-20 04:01:38.0
P1127,1127,Montréal,[MtreaLP] ASpln,46.164163,-1.204575,0,A4868,2023-10-20 04:01:38.0
P1128,1128,Montréal,[MtreaPV] AScen,46.164152,-1.204202,0,A4868,2023-10-20 04:01:38.0
P1129,1129,Oncor,[OncorAy] Abri,46.167677,-1.195155,0,A4872,2023-10-20 04:01:38.0
P1130,1130,Oncor,[OncorLl] ASpln,46.167622,-1.196269,0,A4872,2023-10-20 04:01:38.0
P1131,1131,Place des Halles,[PlHalLl] PP RTCR,46.168933,-1.199794,0,A2271,2023-10-20 04:01:38.0
P1132,1132,Plaine des Jeux,[PJeuxCB] AScln,46.15568,-1.190677,0,A7203,2023-10-20 04:01:38.0
P1133,1133,Plaine des Jeux,[PJeuxPe] AScln,46.155311,-1.19103,0,A7203,2023-10-20 04:01:38.0
P1134,1134,Port de Pêche,[PPechPe] AScen,46.149408,-1.220466,0,A6860,2023-10-20 04:01:38.0
P1135,1135,Port La Pallice,[PLPalLP] ASpln,46.161144,-1.220066,0,A2283,2023-10-20 04:01:38.0
P1136,1136,Québec,[QuebeCB] AScen,46.153591,-1.203708,0,A6061,2023-10-20 04:01:38.0
P1137,1137,Québec,[QuebePe] AScen,46.153108,-1.203855,0,A6061,2023-10-20 04:01:38.0
P1139,1139,Vaugouin,[VgoinAy] Abri,46.165355,-1.190391,0,A4889,2023-10-20 04:01:38.0
P1140,1140,Vaugouin,[VgoinLP] Abri,46.165444,-1.190044,0,A4889,2023-10-20 04:01:38.0
P1141,1141,Wilson,[WlsonCB] AScln,46.1602,-1.188069,0,A6055,2023-10-20 04:01:38.0
P1142,1142,Wilson,[WlsonPe] AScln,46.160797,-1.188483,0,A6055,2023-10-20 04:01:38.0
P1143,1143,ZI Chef de Baie,[ZCBaiCB] AScln,46.159611,-1.199202,0,A6059,2023-10-20 04:01:38.0
P1144,1144,ZI Chef de Baie,[ZCBaiPe] AScln,46.159558,-1.19903,0,A6059,2023-10-20 04:01:38.0
P1145,1145,Frigo,[FrigoDi] AScen,46.162213,-1.21363,0,A4835,2023-10-20 04:01:38.0
P1169,1169,Les Frigauderies,"",46.183985,-1.003372,0,A8031,2023-10-20 04:01:38.0
P1170,1170,Les Frigauderies,"",46.18389,-1.003236,0,A8031,2023-10-20 04:01:38.0
P1200,1200,Annette Epaud,[AEpauCB] AScln,46.161633,-1.177894,0,A6857,2023-10-20 04:01:38.0
P1201,1201,Baie de Port-Neuf,[BPNeuCB] AScln,46.15443,-1.184163,0,A6058,2023-10-20 04:01:38.0
P1202,1202,Baie de Port-Neuf,[BPNeuPe] AScln,46.15458,-1.184058,0,A6058,2023-10-20 04:01:38.0
P1203,1203,Bâtiment 23,[Bat23CB] AScln,46.157236,-1.181766,0,A4814,2023-10-20 04:01:38.0
P1204,1204,Bâtiment 23,[Bat23Pe] Abri,46.156958,-1.181766,0,A4814,2023-10-20 04:01:38.0
P1205,1205,Bourbonnais,[BrbonPV] Abri,46.157663,-1.184588,0,A4815,2023-10-20 04:01:38.0
P1206,1206,Bourbonnais,[BrbonVj] AScln,46.157686,-1.184483,0,A4815,2023-10-20 04:01:38.0
P1207,1207,Bretagne,[BretaPV] AScln,46.159586,-1.181875,0,A4816,2023-10-20 04:01:38.0
P1208,1208,Bretagne,[BretaVj] AScln,46.159869,-1.181658,0,A4816,2023-10-20 04:01:38.0
P1209,1209,Lycée Maritime,[LyMarPV] Abri,46.154366,-1.180827,0,A4829,2023-10-20 04:01:38.0
P1210,1210,Lycée Maritime,[LyMarVj] Abri,46.155038,-1.180738,0,A4829,2023-10-20 04:01:38.0
P1211,1211,La Corniche,[CnchePV] AScen,46.153563,-1.177469,0,A4844,2023-10-20 04:01:38.0
P1212,1212,La Corniche,[CncheVj] AScen,46.153644,-1.177647,0,A4844,2023-10-20 04:01:38.0
P1213,1213,La Couronne,[CrnneCB] AScln,46.159913,-1.179633,0,A4845,2023-10-20 04:01:38.0
P1214,1214,La Couronne,[CrnnePe] Abri,46.160236,-1.179391,0,A4845,2023-10-20 04:01:38.0
P1215,1215,La Grenouillère,[GrenoPV] AScln,46.160994,-1.181569,0,A4846,2023-10-20 04:01:38.0
P1216,1216,La Grenouillère,[GrenoVj] AScln,46.161075,-1.181691,0,A4846,2023-10-20 04:01:38.0
P1217,1217,Lac de Port-Neuf,[LPNeuCB] AScln,46.153994,-1.188844,0,A7442,2023-10-20 04:01:38.0
P1218,1218,Lac de Port-Neuf,[LPNeuPe] AScln,46.153925,-1.188763,0,A7442,2023-10-20 04:01:38.0
P1219,1219,Le Mail Casino,[MCasiPV] AScen,46.155647,-1.166419,0,A2273,2023-10-20 04:01:38.0
P1220,1220,Le Mail Casino,[MCasiVj] AScln,46.155969,-1.16658,0,A2273,2023-10-20 04:01:38.0
P1221,1221,Le Mail Clinique,[MClinPV] AScen,46.155552,-1.169647,0,A4847,2023-10-20 04:01:38.0
P1222,1222,Le Mail Clinique,[MClinVj] AScln,46.155775,-1.170433,0,A4847,2023-10-20 04:01:38.0
P1223,1223,Philippe Vincent,[PhVinPV] Abri,46.154166,-1.17338,0,A4873,2023-10-20 04:01:38.0
P1224,1224,Philippe Vincent,[PhVinVj] AScen,46.154172,-1.173761,0,A4873,2023-10-20 04:01:38.0
P1225,1225,Plage Chef de Baie,[PlgCBCB] AScen,46.150147,-1.20595,0,A6060,2023-10-20 04:01:38.0
P1226,1226,Plage Chef de Baie,[PlgCBPe] AScln,46.150444,-1.205577,0,A6060,2023-10-20 04:01:38.0
P1227,1227,Plage de la Concurrence,[PlagePV] AScln,46.155908,-1.161222,0,A4875,2023-10-20 04:01:38.0
P1228,1228,Plage de la Concurrence,[PlageVj] AScln,46.156491,-1.16073,0,A4875,2023-10-20 04:01:38.0
P1229,1229,Provence,[PrvcePV] Abri,46.156619,-1.177691,0,A2284,2023-10-20 04:01:38.0
P1230,1230,Savoie,[SavoiCB] AScln,46.157047,-1.185163,0,A5821,2023-10-20 04:01:38.0
P1231,1231,Savoie,[SavoiPe] AScln,46.157133,-1.184888,0,A5821,2023-10-20 04:01:38.0
P1232,1232,Stade M. Deflandre,[StdMDCB] AScln,46.15753,-1.180058,0,A2285,2023-10-20 04:01:38.0
P1233,1233,Stade M. Deflandre,[StdMDPe] Abri,46.157502,-1.179969,0,A2285,2023-10-20 04:01:38.0
P1234,1234,Annette Epaud,[AEpauPe] AScen,46.161483,-1.17778,0,A6857,2023-10-20 04:01:38.0
P1300,1300,Olga de Saint-Affrique,[OStAfMr] ASpln,46.169213,-1.186877,0,A4810,2023-10-20 04:01:38.0
P1301,1301,Olga de Saint-Affrique,[OStAfVi] Abri,46.169508,-1.186472,0,A4810,2023-10-20 04:01:38.0
P1302,1302,Athènes,[AthenPV] AScen,46.165986,-1.183294,0,A6652,2023-10-20 04:01:38.0
P1303,1303,Athènes,[AthenVj] AScen,46.165844,-1.183202,0,A6652,2023-10-20 04:01:38.0
P1304,1304,B. Giraudeau,[GirauMr] AScen,46.168027,-1.185091,0,A8019,2023-10-20 04:01:38.0
P1305,1305,B. Giraudeau,[GirauVi] AScen,46.167972,-1.18508,0,A8019,2023-10-20 04:01:38.0
P1306,1306,Bel Air,[BlAirMr] ASpln,46.16623,-1.164163,0,A2257,2023-10-20 04:01:38.0
P1307,1307,Bel Air,[BlAirVi] Abri,46.166425,-1.164238,0,A2257,2023-10-20 04:01:38.0
P1308,1308,Cimetière Paysager,[CimPaVi] ASpln,46.173736,-1.179527,0,A7060,2023-10-20 04:01:38.0
P1309,1309,Dame Hilaire,[DaHilMr] ASpln,46.167308,-1.178027,0,A8022,2023-10-20 04:01:38.0
P1310,1310,Dame Hilaire,[DaHilVi] Abri,46.167252,-1.177258,0,A8022,2023-10-20 04:01:38.0
P1311,1311,Fromentin,[FromeEx] AScen,46.165194,-1.175552,0,A4906,2023-10-20 04:01:38.0
P1312,1312,Fromentin,[FromeLl] NON,46.165341,-1.175819,0,A4906,2023-10-20 04:01:38.0
P1313,1313,Grandes Varennes,[GdVarLl] NON,46.169013,-1.17758,0,A5914,2023-10-20 04:01:38.0
P1314,1314,Guiardes,[GuiarMr] ASpln,46.171258,-1.179819,0,A2280,2023-10-20 04:01:38.0
P1315,1315,Guiardes,[GuiarVi] Abri,46.172091,-1.179722,0,A2280,2023-10-20 04:01:38.0
P1316,1316,Kennedy,[KenneMr] Abri,46.167633,-1.181047,0,A4842,2023-10-20 04:01:38.0
P1317,1317,Kennedy,[KenneVi] Abri,46.167425,-1.180538,0,A4842,2023-10-20 04:01:38.0
P1318,1318,La Chope,[ChopeMr] ASpln,46.169125,-1.169652,0,A4843,2023-10-20 04:01:38.0
P1319,1319,La Chope,[ChopeVi] Abri,46.168866,-1.169711,0,A4843,2023-10-20 04:01:38.0
P1320,1320,La Tour,[LTourEx] Abri,46.170502,-1.185311,0,A4852,2023-10-20 04:01:38.0
P1321,1321,La Tour,[LTourLl] AScen,46.170527,-1.185325,0,A4852,2023-10-20 04:01:38.0
P1322,1322,Le Brun,[LBrunEx] AScen,46.170733,-1.180286,0,A4857,2023-10-20 04:01:38.0
P1323,1323,Le Brun,[LBrunLl] NON,46.171036,-1.182472,0,A4857,2023-10-20 04:01:38.0
P1324,1324,Le Lorrain,[LorraMr] ASpln,46.169155,-1.171494,0,A4854,2023-10-20 04:01:38.0
P1325,1325,Le Lorrain,[LorraVi] Abri,46.168763,-1.172411,0,A4854,2023-10-20 04:01:38.0
P1326,1326,Louis Guillet,[LGuilMr] Abri,46.169688,-1.18343,0,A4914,2023-10-20 04:01:38.0
P1327,1327,Louis Guillet,[LGuilVi] ASpln,46.169725,-1.183477,0,A4914,2023-10-20 04:01:38.0
P1328,1328,Ludothèque,[LudotPV] AScen,46.170066,-1.177366,0,A4831,2023-10-20 04:01:38.0
P1329,1329,Ludothèque,[LudotVj] Abri,46.170188,-1.177299,0,A4831,2023-10-20 04:01:38.0
P1330,1330,Luxembourg,[LuxemPV] Abri,46.169225,-1.178333,0,A4863,2023-10-20 04:01:38.0
P1331,1331,Luxembourg,[LuxemVj] Abri,46.169113,-1.177772,0,A4863,2023-10-20 04:01:38.0
P1332,1332,Pierre Loti,[PiLotPV] AScln,46.163566,-1.176124,0,A4921,2023-10-20 04:01:38.0
P1333,1333,Pierre Loti,[PiLotVj] AScln,46.16305,-1.176124,0,A4921,2023-10-20 04:01:38.0
P1334,1334,Prague,[PraguPV] MDO,46.1706,-1.173913,0,A2287,2023-10-20 04:01:38.0
P1335,1335,Prague,[PraguVj] Abri,46.170469,-1.174188,0,A2287,2023-10-20 04:01:38.0
P1336,1336,Quatre Fages,[QFageAy] Abri,46.164552,-1.181377,0,A4880,2023-10-20 04:01:38.0
P1337,1337,Quatre Fages,[QFageLP] Abri,46.164641,-1.181033,0,A4880,2023-10-20 04:01:38.0
P1338,1338,Racine,[RacinMr] ASpln,46.168283,-1.174316,0,A4881,2023-10-20 04:01:38.0
P1339,1339,Racine,[RacinVi] Abri,46.168091,-1.17458,0,A4881,2023-10-20 04:01:38.0
P1341,1341,Résistance,[ResisMr] ASpln,46.170205,-1.179986,0,A4849,2023-10-20 04:01:38.0
P1342,1342,Résistance,[ResisVi] Abri,46.169602,-1.18023,0,A4849,2023-10-20 04:01:38.0
P1343,1343,Rossignolette,[RossiAy] ASpln,46.165416,-1.186819,0,A2292,2023-10-20 04:01:38.0
P1344,1344,Rossignolette,[RossiLP] Abri,46.165311,-1.186044,0,A2292,2023-10-20 04:01:38.0
P1345,1345,Saint-Maurice,[StMauAy] Abri,46.164047,-1.17493,0,A2294,2023-10-20 04:01:38.0
P1346,1346,Saint-Maurice,[StMauLP] Abri,46.164188,-1.17528,0,A2294,2023-10-20 04:01:38.0
P1347,1347,Schuman,[ScmanEx] NON,46.165958,-1.1786,0,A5913,2023-10-20 04:01:38.0
P1348,1348,Schuman,[ScmanLl] NON,46.165622,-1.178119,0,A5913,2023-10-20 04:01:38.0
P1349,1349,Tribunal d'Instance,[TribuMr] ASpln,46.167688,-1.166913,0,A4858,2023-10-20 04:01:38.0
P1350,1350,Tribunal d'Instance,[TribuVi] Abri,46.167269,-1.166316,0,A4858,2023-10-20 04:01:38.0
P1351,1351,Résistance,[ResisD2] PP RTCR,46.169508,-1.180922,0,A4849,2023-10-20 04:01:38.0
P1352,1352,Résistance,[ResisLP] AScen,46.169402,-1.180625,0,A4849,2023-10-20 04:01:38.0
P1400,1400,11 Novembre 1918,[11N18Lg] Abri,46.173733,-1.150302,0,A2253,2023-10-20 04:01:38.0
P1401,1401,11 Novembre 1918,[11N18Bo] Abri,46.172988,-1.150541,0,A2253,2023-10-20 04:01:38.0
P1402,1402,Claude Masse,[ClMasMr] Abri,46.162675,-1.160313,0,A4821,2023-10-20 04:01:38.0
P1403,1403,Claude Masse,[ClMasVi] Abri,46.162675,-1.161075,0,A4821,2023-10-20 04:01:38.0
P1404,1404,Colbert,[CbertNi] AScln,46.167741,-1.159113,0,A4822,2023-10-20 04:01:38.0
P1405,1405,Colbert,[CbertPV] AScln,46.168669,-1.158836,0,A4822,2023-10-20 04:01:38.0
P1406,1406,Coligny,[ColigLP] ASpln,46.163219,-1.165741,0,A4824,2023-10-20 04:01:38.0
P1407,1407,Coligny,[ColigMr] ASpln,46.163813,-1.164941,0,A4824,2023-10-20 04:01:38.0
P1408,1408,Coligny,[ColigVi] Abri,46.162905,-1.1636,0,A4824,2023-10-20 04:01:38.0
P1409,1409,Coligny Guiton,[CoGuiCB] Abri,46.159658,-1.1652,0,A4825,2023-10-20 04:01:38.0
P1410,1410,Coligny Guiton,[CoGuiPe] Abri,46.159511,-1.164813,0,A4825,2023-10-20 04:01:38.0
P1411,1411,Franck Espoir,[FEspoNi] AScen,46.172877,-1.160727,0,A4834,2023-10-20 04:01:38.0
P1412,1412,Franck Espoir,[FEspoPV] Abri,46.172869,-1.160875,0,A4834,2023-10-20 04:01:38.0
P1413,1413,Jéricho,[JericPV] AScln,46.166344,-1.159608,0,A4839,2023-10-20 04:01:38.0
P1414,1414,Jourdan,[JourdNi] AScen,46.163863,-1.158569,0,A4840,2023-10-20 04:01:38.0
P1415,1415,Jourdan,[JourdPV] AScen,46.164225,-1.158888,0,A4840,2023-10-20 04:01:38.0
P1416,1416,La Genette,[GenetCB] Abri,46.160741,-1.172047,0,A2268,2023-10-20 04:01:38.0
P1417,1417,La Genette,[GenetPe] Abri,46.160555,-1.171527,0,A2268,2023-10-20 04:01:38.0
P1418,1418,La Trompette,[TrompNi] AScen,46.170963,-1.15878,0,A2269,2023-10-20 04:01:38.0
P1419,1419,La Trompette,[TrompPV] Abri,46.170838,-1.158847,0,A2269,2023-10-20 04:01:38.0
P1420,1420,Lycée Vieljeux,[LyVjeBo] Abri,46.176886,-1.151927,0,A2278,2023-10-20 04:01:38.0
P1421,1421,Lycée Vieljeux,[LyVjeLg] Abri,46.177258,-1.151375,0,A2278,2023-10-20 04:01:38.0
P1422,1422,Lycée Vieljeux,[LyVjePV] Abri,46.177261,-1.151716,0,A2278,2023-10-20 04:01:38.0
P1423,1423,Missy,[MissyAy] Abri,46.163311,-1.167711,0,A4866,2023-10-20 04:01:38.0
P1424,1424,Missy,[MissyLP] Abri,46.163477,-1.168486,0,A4866,2023-10-20 04:01:38.0
P1425,1425,Point du Jour,[PtJouCB] AScen,46.161369,-1.175713,0,A4877,2023-10-20 04:01:38.0
P1426,1426,Point du Jour,[PtJouPe] Abri,46.161169,-1.175433,0,A4877,2023-10-20 04:01:38.0
P1427,1427,Renaudot,[RndotCB] AScen,46.159038,-1.161397,0,A2291,2023-10-20 04:01:38.0
P1428,1428,Renaudot,[RndotPe] Abri,46.158966,-1.161386,0,A2291,2023-10-20 04:01:38.0
P1429,1429,Voltaire,[VoltaCB] AScen,46.160147,-1.168372,0,A4891,2023-10-20 04:01:38.0
P1430,1430,Voltaire,[VoltaPe] AScln,46.160063,-1.168419,0,A4891,2023-10-20 04:01:38.0
P1500,1500,Beauregard,"",46.16772,-1.140914,0,A4996,2023-10-20 04:01:38.0
P1501,1501,Beauregard,"",46.167735,-1.141291,0,A4996,2023-10-20 04:01:38.0
P1502,1502,Bourgogne,[BgognMn] ASpln,46.172397,-1.124638,0,A5712,2023-10-20 04:01:38.0
P1503,1503,Centre de Soins,[CSoinSX] AScen,46.17513,-1.131425,0,A2270,2023-10-20 04:01:38.0
P1504,1504,Champ de Mars,[CMarsPV] Abri,46.169433,-1.148997,0,A2259,2023-10-20 04:01:38.0
P1505,1505,Champ de Mars,[CMarsSX] Abri,46.169461,-1.148555,0,A2259,2023-10-20 04:01:38.0
P1506,1506,Château du Prieuré,[ChPriPV] AScln,46.171774,-1.147502,0,A5001,2023-10-20 04:01:38.0
P1507,1507,Château du Prieuré,[ChPriSX] AScln,46.172816,-1.146663,0,A5001,2023-10-20 04:01:38.0
P1508,1508,Clinique,[CliniMn] Abri,46.173769,-1.127386,0,A5713,2023-10-20 04:01:38.0
P1509,1509,Cognehors,[CogneBe] Abri,46.167224,-1.139302,0,A8020,2023-10-20 04:01:38.0
P1510,1510,Cognehors,[CogneMn] ASpln,46.167033,-1.140713,0,A8020,2023-10-20 04:01:38.0
P1511,1511,Collège de Beauregard,[CoBeaPV] Abri,46.171097,-1.132516,0,A2261,2023-10-20 04:01:38.0
P1512,1512,Dufresse,"",46.171467,-1.137254,0,A5004,2023-10-20 04:01:38.0
P1513,1513,Dufresse,"",46.171526,-1.137254,0,A5004,2023-10-20 04:01:38.0
P1514,1514,Electro,[ElectPV] Abri,46.170188,-1.146541,0,A5006,2023-10-20 04:01:38.0
P1515,1515,Electro,[ElectSX] Abri,46.170261,-1.146408,0,A5006,2023-10-20 04:01:38.0
P1516,1516,Hôpital Lafond,[HLafoPV] Abri,46.176511,-1.136369,0,A2266,2023-10-20 04:01:38.0
P1517,1517,Hôpital Lafond,[HLafoSX] AScen,46.176461,-1.135941,0,A2266,2023-10-20 04:01:38.0
P1518,1518,Le Gué,[LeGuePV] AScln,46.176172,-1.139597,0,A4853,2023-10-20 04:01:38.0
P1519,1519,Le Gué,[LeGueSX] AScln,46.176113,-1.139408,0,A4853,2023-10-20 04:01:38.0
P1520,1520,Léon Jouhaux,"",46.178507,-1.141597,0,A4934,2023-10-20 04:01:38.0
P1521,1521,Léon Jouhaux,"",46.178574,-1.141701,0,A4934,2023-10-20 04:01:38.0
P1522,1522,Maquis,"",46.17332,-1.135274,0,A6930,2023-10-20 04:01:38.0
P1523,1523,Maquis,"",46.173356,-1.135318,0,A6930,2023-10-20 04:01:38.0
P1524,1524,Marius Lacroix,"",46.168903,-1.145626,0,A5507,2023-10-20 04:01:38.0
P1525,1525,Marius Lacroix,"",46.168625,-1.144194,0,A5507,2023-10-20 04:01:38.0
P1526,1526,Mistral,"",46.16927,-1.138792,0,A6929,2023-10-20 04:01:38.0
P1527,1527,Mistral,"",46.169887,-1.138687,0,A6929,2023-10-20 04:01:38.0
P1528,1528,Place de Lafond,[PLfonPV] Abri,46.174019,-1.145516,0,A2281,2023-10-20 04:01:38.0
P1529,1529,Place de Lafond,[PLfonSX] AScln,46.174125,-1.145302,0,A2281,2023-10-20 04:01:38.0
P1530,1530,Soissons,[SoissPV] Abri,46.175238,-1.143036,0,A5028,2023-10-20 04:01:38.0
P1531,1531,Soissons,[SoissSX] AScln,46.175008,-1.14333,0,A5028,2023-10-20 04:01:38.0
P1600,1600,André Garnerin,"",46.167093,-1.123846,0,A4896,2023-10-20 04:01:38.0
P1601,1601,André Garnerin,"",46.167736,-1.124563,0,A4896,2023-10-20 04:01:38.0
P1602,1602,Cimetière de Saint-Eloi,[CimSECB] AScen,46.162969,-1.129838,0,A5003,2023-10-20 04:01:38.0
P1603,1603,Cimetière de Saint-Eloi,[CimSEPe] AScln,46.163127,-1.129777,0,A5003,2023-10-20 04:01:38.0
P1604,1604,Géraniums,[GeranCB] AScen,46.164375,-1.124677,0,A5008,2023-10-20 04:01:38.0
P1605,1605,Géraniums,[GeranPe] AScen,46.164441,-1.124075,0,A5008,2023-10-20 04:01:38.0
P1606,1606,Iris,[IrisBe] Abri,46.168266,-1.131716,0,A5010,2023-10-20 04:01:38.0
P1607,1607,Iris,[IrisMn] Abri,46.167858,-1.133491,0,A5010,2023-10-20 04:01:38.0
P1608,1608,Jacques Charles,"",46.165617,-1.123669,0,A4909,2023-10-20 04:01:38.0
P1609,1609,Jacques Charles,"",46.165484,-1.123843,0,A4909,2023-10-20 04:01:38.0
P1610,1610,LEP Rompsay,[LEPRoLE] NON,46.161044,-1.126277,0,A2274,2023-10-20 04:01:38.0
P1611,1611,LEP Rompsay,[LEPRoPV] Abri,46.160983,-1.126691,0,A2274,2023-10-20 04:01:38.0
P1612,1612,Les Sauniers,[LSaunCB] AScen,46.161261,-1.138605,0,A7256,2023-10-20 04:01:38.0
P1613,1613,Les Sauniers,[LSaunPe] AScen,46.161147,-1.138588,0,A7256,2023-10-20 04:01:38.0
P1614,1614,Lully,[LullyCB] Abri,46.160877,-1.129211,0,A5022,2023-10-20 04:01:38.0
P1615,1615,Moulin des Justices,[MJustBe] Abri,46.170144,-1.126211,0,A4917,2023-10-20 04:01:38.0
P1616,1616,Moulin des Justices,[MJustMn] Abri,46.170849,-1.124425,0,A4917,2023-10-20 04:01:38.0
P1617,1617,Patte d'Oie,[PatOiBe] ASpln,46.166933,-1.135752,0,A5026,2023-10-20 04:01:38.0
P1618,1618,Patte d'Oie,[PatOiMn] Abri,46.166816,-1.136625,0,A5026,2023-10-20 04:01:38.0
P1619,1619,Porte Royale,[PRyalCB] Abri,46.162238,-1.141902,0,A2286,2023-10-20 04:01:38.0
P1620,1620,Porte Royale,[PRyalPe] Abri,46.162177,-1.141488,0,A2286,2023-10-20 04:01:38.0
P1621,1621,Primevères,[PrimeMn] Abri,46.168997,-1.130011,0,A4925,2023-10-20 04:01:38.0
P1622,1622,Ravel,[RavelCB] Abri,46.163922,-1.126908,0,A8025,2023-10-20 04:01:38.0
P1623,1623,Ravel,[RavelPe] AScen,46.163933,-1.126363,0,A8025,2023-10-20 04:01:38.0
P1624,1624,Saint-Saëns,[SaensCB] AScen,46.161302,-1.134166,0,A8028,2023-10-20 04:01:38.0
P1625,1625,Saint-Saëns,[SaensPe] AScen,46.161191,-1.134155,0,A8028,2023-10-20 04:01:38.0
P1700,1700,14 Juillet,[14juiMr] Abri,46.152186,-1.124625,0,A5046,2023-10-20 04:01:38.0
P1701,1701,14 Juillet,[14juiVi] ASpln,46.151977,-1.123744,0,A5046,2023-10-20 04:01:38.0
P1702,1702,Billaud Varenne,[BiVarMr] Abri,46.152063,-1.121691,0,A4971,2023-10-20 04:01:38.0
P1703,1703,Billaud Varenne,[BiVarVi] ASpln,46.151947,-1.121744,0,A4971,2023-10-20 04:01:38.0
P1704,1704,Clos Margat,[CMgatSR] AScln,46.15655,-1.119933,0,A4974,2023-10-20 04:01:38.0
P1705,1705,Convention,[ConveMr] Abri,46.15143,-1.117902,0,A4975,2023-10-20 04:01:38.0
P1706,1706,Convention,[ConveVi] ASpln,46.151333,-1.117883,0,A4975,2023-10-20 04:01:38.0
P1707,1707,Ecole Lavoisier,"",46.154382,-1.127342,0,A4930,2023-10-20 04:01:38.0
P1708,1708,Ecole Lavoisier,"",46.154376,-1.127278,0,A4930,2023-10-20 04:01:38.0
P1709,1709,Fabre d'Eglantine,[FabreMr] Abri,46.150822,-1.116049,0,A2263,2023-10-20 04:01:38.0
P1710,1710,Fabre d'Eglantine,[FabrePe] AScen,46.150744,-1.116066,0,A2263,2023-10-20 04:01:38.0
P1711,1711,Collège Fabre d'Eglantine,[ColFaSR] AScen,46.152044,-1.115227,0,A2260,2023-10-20 04:01:38.0
P1712,1712,Gare La Rochelle - Jean Moulin,[GaJMoMr] Abri,46.152908,-1.139344,0,A4838,2023-10-20 04:01:38.0
P1713,1713,Gare La Rochelle - Jean Moulin,[GaJMoVi] Abri,46.152697,-1.139472,0,A4838,2023-10-20 04:01:38.0
P1714,1714,Jean-Paul Sartre,[JPSarDB] AScln,46.153941,-1.116361,0,A6852,2023-10-20 04:01:38.0
P1715,1715,Jean-Paul Sartre,[JPSarSR] AScen,46.153752,-1.116427,0,A6852,2023-10-20 04:01:38.0
P1716,1716,Lavoisier,[LavoiMr] Abri,46.152975,-1.126597,0,A4893,2023-10-20 04:01:38.0
P1717,1717,Lavoisier,[LavoiVi] ASpln,46.152852,-1.126605,0,A4893,2023-10-20 04:01:38.0
P1718,1718,Lycée Valin,[LyValMr] Abri,46.15443,-1.136516,0,A2277,2023-10-20 04:01:38.0
P1719,1719,Lycée Valin,"",46.155024,-1.136083,0,A2277,2023-10-20 04:01:38.0
P1720,1720,Lycée Valin,[LyValVi] Abri,46.155563,-1.134672,0,A2277,2023-10-20 04:01:38.0
P1722,1722,Petit Brouage,[PtBroMr] Abri,46.156219,-1.131263,0,A4894,2023-10-20 04:01:38.0
P1723,1723,Petit Brouage,[PtBroSR] AScen,46.156211,-1.130052,0,A4894,2023-10-20 04:01:38.0
P1724,1724,Petit Brouage,[PtBroVi] ASpln,46.155305,-1.131083,0,A4894,2023-10-20 04:01:38.0
P1725,1725,Proudhon,[ProudMr] Abri,46.153233,-1.131008,0,A2289,2023-10-20 04:01:38.0
P1726,1726,Proudhon,[ProudVi] ASpln,46.153147,-1.131127,0,A2289,2023-10-20 04:01:38.0
P1727,1727,Robespierre,[RobesDB] Abri,46.156905,-1.123119,0,A4987,2023-10-20 04:01:38.0
P1728,1728,Robespierre,[RobesSR] Abri,46.156763,-1.121905,0,A4987,2023-10-20 04:01:38.0
P1729,1729,Schoelcher,[SchoeDB] AScln,46.156566,-1.12733,0,A4929,2023-10-20 04:01:38.0
P1730,1730,Schoelcher,[SchoeSR] AScln,46.156575,-1.125944,0,A4929,2023-10-20 04:01:38.0
P1800,1800,Aquarium,[AquarBo] ASpln,46.152347,-1.150236,0,A4809,2023-10-20 04:01:38.0
P1801,1801,Aquarium,[AquarLg] ASpln,46.152722,-1.150058,0,A4809,2023-10-20 04:01:38.0
P1802,1802,Cité des Minimes,[CiMinBe] Abri,46.139355,-1.165886,0,A2275,2023-10-20 04:01:38.0
P1803,1803,EIGSI,[EigsiBo] Abri,46.139311,-1.155102,0,A4594,2023-10-20 04:01:38.0
P1804,1804,EIGSI,[EigsiLg] Abri,46.139375,-1.155091,0,A4594,2023-10-20 04:01:38.0
P1807,1807,Europe,[EuropBo] Abri,46.141411,-1.157216,0,A4905,2023-10-20 04:01:38.0
P1808,1808,Europe,[EuropLg] Abri,46.14155,-1.157086,0,A4905,2023-10-20 04:01:38.0
P1809,1809,Fac de Droit,[FDroiUn] NON,46.140336,-1.153461,0,A4833,2023-10-20 04:01:38.0
P1810,1810,IUT,[IUTecUn] NON,46.143541,-1.153302,0,A4836,2023-10-20 04:01:38.0
P1811,1811,La Sauvagère,[SauvaBe] Abri,46.140913,-1.16178,0,A4850,2023-10-20 04:01:38.0
P1812,1812,La Sauvagère,[SauvaMn] ASpln,46.140708,-1.16338,0,A4850,2023-10-20 04:01:38.0
P1813,1813,La Sole,[LSoleBo] Abri,46.143227,-1.156836,0,A4851,2023-10-20 04:01:38.0
P1814,1814,La Sole,[LSoleLg] Abri,46.143269,-1.156744,0,A4851,2023-10-20 04:01:38.0
P1815,1815,Le Lac,[LeLacBo] Abri,46.145872,-1.154527,0,A4912,2023-10-20 04:01:38.0
P1816,1816,Le Lac,[LeLacLg] Abri,46.145936,-1.154408,0,A4912,2023-10-20 04:01:38.0
P1817,1817,Le Rail,[LRailBo] ASpln,46.138633,-1.148675,0,A4855,2023-10-20 04:01:38.0
P1818,1818,Le Rail,[LRailLg] Abri,46.138658,-1.149261,0,A4855,2023-10-20 04:01:38.0
P1819,1819,Les Frênes,[FreneAy] ASpln,46.142836,-1.141277,0,A4859,2023-10-20 04:01:38.0
P2046,2046,Le Bonnodeau,"",46.182124,-1.173061,0,A4518,2023-10-20 04:01:38.0
P1820,1820,Les Frênes,[FreneLP] Abri,46.143025,-1.141236,0,A4859,2023-10-20 04:01:38.0
P1821,1821,Les Peupliers,[PeuplDB],46.144016,-1.138281,0,A7059,2023-10-20 04:01:38.0
P1822,1822,Les Peupliers,[PeuplJa],46.144007,-1.138388,0,A7059,2023-10-20 04:01:38.0
P1823,1823,Lycée Hôtelier,[LyHotUn] NON,46.143977,-1.159688,0,A4699,2023-10-20 04:01:38.0
P1824,1824,Maison de la Charente-Maritime,[MCharBo] Abri,46.138269,-1.152022,0,A4915,2023-10-20 04:01:38.0
P1825,1825,Maison de la Charente-Maritime,[MCharLg] Abri,46.138305,-1.152075,0,A4915,2023-10-20 04:01:38.0
P1826,1826,Musée Maritime,[MuMarBo] ASpln,46.149169,-1.151127,0,A4870,2023-10-20 04:01:38.0
P1827,1827,Musée Maritime,[MuMarLg] Abri,46.149502,-1.150502,0,A4870,2023-10-20 04:01:38.0
P1828,1828,Normandin,[NormaAy] ASpln,46.141491,-1.138922,0,A6864,2023-10-20 04:01:38.0
P1829,1829,Normandin,[NormaLg] Abri,46.141669,-1.140169,0,A6864,2023-10-20 04:01:38.0
P1830,1830,Normandin,[NormaLP] Abri,46.141838,-1.139483,0,A6864,2023-10-20 04:01:38.0
P1831,1831,Octroi,[OctroAy] Abri,46.145152,-1.142463,0,A4522,2023-10-20 04:01:38.0
P1832,1832,Octroi,[OctroLP] Abri,46.145677,-1.142552,0,A4522,2023-10-20 04:01:38.0
P1833,1833,Place des Britanniques,[PBritAy] Abri,46.148472,-1.143769,0,A4874,2023-10-20 04:01:38.0
P1834,1834,Place des Britanniques,[PBritLP] Abri,46.149177,-1.144488,0,A4874,2023-10-20 04:01:38.0
P1835,1835,Plage des Minimes,[PlMinBe] Abri,46.139961,-1.168872,0,A4876,2023-10-20 04:01:38.0
P1838,1838,Port des Minimes,[PtMinMn] Abri,46.1407,-1.165499,0,A4924,2023-10-20 04:01:38.0
P1839,1839,République,[RepubBo] ASpln,46.140719,-1.142113,0,A4927,2023-10-20 04:01:38.0
P1840,1840,République,[RepubLg] ASpln,46.140675,-1.143016,0,A4927,2023-10-20 04:01:38.0
P1841,1841,Rond-Point de l'Europe,[RPEurBe] Abri,46.141455,-1.159194,0,A4883,2023-10-20 04:01:38.0
P1842,1842,Rond-Point de l'Europe,[RPEurMn] ASpln,46.141511,-1.159541,0,A4883,2023-10-20 04:01:38.0
P1843,1843,Technoforum,[TechnBo] Abri,46.148375,-1.153858,0,A4888,2023-10-20 04:01:38.0
P1844,1844,Technoforum,[TechnLg] Abri,46.148308,-1.153702,0,A4888,2023-10-20 04:01:38.0
P1845,1845,Vautreuil,[VtreuBo] ASpln,46.139586,-1.145144,0,A4890,2023-10-20 04:01:38.0
P1846,1846,Vautreuil,[VtreuLg] Abri,46.140077,-1.14493,0,A4890,2023-10-20 04:01:38.0
P2000,2000,8 Mai 1945,[8MaiLBo] Abri,46.182427,-1.152672,0,A2254,2023-10-20 04:01:38.0
P2001,2001,8 Mai 1945,[8MaiLLg] ASpln,46.183758,-1.15215,0,A2254,2023-10-20 04:01:38.0
P2002,2002,Alizés,"",46.175456,-1.155569,0,A4937,2023-10-20 04:01:38.0
P2003,2003,Alizés,[AlizeVj] AScln,46.175516,-1.155761,0,A4937,2023-10-20 04:01:38.0
P2004,2004,André Charrier,[AnChaNi] AScen,46.190499,-1.157369,0,A6847,2023-10-20 04:01:38.0
P2005,2005,André Charrier,[AnChaPV] Abri,46.190552,-1.157519,0,A6847,2023-10-20 04:01:38.0
P2006,2006,Avenue de Lagord,[AvLagNi] AScen,46.184244,-1.158672,0,A6862,2023-10-20 04:01:38.0
P2007,2007,Avenue de Lagord,"",46.183201,-1.158845,0,A6862,2023-10-20 04:01:38.0
P2008,2008,Blériot,"",46.178746,-1.147381,0,A4935,2023-10-20 04:01:38.0
P2009,2009,Blériot,"",46.178774,-1.147999,0,A4935,2023-10-20 04:01:38.0
P2010,2010,Bois d'Huré,"",46.189213,-1.140799,0,A4938,2023-10-20 04:01:38.0
P2011,2011,Bois d'Huré,"",46.189164,-1.140749,0,A4938,2023-10-20 04:01:38.0
P2012,2012,Centre Commercial du Fief Rose,[CCFRoPV] Abri,46.173394,-1.1685,0,A4967,2023-10-20 04:01:38.0
P2013,2013,Centre Commercial du Fief Rose,[CCFRoVj] Abri,46.173466,-1.1681,0,A4967,2023-10-20 04:01:38.0
P2014,2014,Collège Jean Guiton,"",46.172225,-1.171925,0,A1493,2023-10-20 04:01:38.0
P2015,2015,Collège Jean Guiton,[CESJGPV] Abri,46.172166,-1.172394,0,A1493,2023-10-20 04:01:38.0
P2016,2016,Collège Jean Guiton,[CESJGVj] Abri,46.172763,-1.170327,0,A1493,2023-10-20 04:01:38.0
P2017,2017,Château d'Huré,"",46.18806,-1.140224,0,A5714,2023-10-20 04:01:38.0
P2018,2018,Château d'Huré,"",46.187999,-1.140291,0,A5714,2023-10-20 04:01:38.0
P2020,2020,Fief des Greffières,"",46.189807,-1.144428,0,A7446,2023-10-20 04:01:38.0
P2021,2021,Fief des Greffières,"",46.189749,-1.144306,0,A7446,2023-10-20 04:01:38.0
P2022,2022,Fief des Jarries,[FJarrNi] AScen,46.193713,-1.156205,0,A6063,2023-10-20 04:01:38.0
P2023,2023,Fief des Jarries,[FJarrPV] Abri,46.193513,-1.15625,0,A6063,2023-10-20 04:01:38.0
P2024,2024,Fief Nouveau,"",46.187548,-1.157519,0,A4956,2023-10-20 04:01:38.0
P2025,2025,Fief Rose,[FRoseNi] AScen,46.180511,-1.167127,0,A4507,2023-10-20 04:01:38.0
P2026,2026,Fief Rose,[FRosePV] AScen,46.180313,-1.167352,0,A4507,2023-10-20 04:01:38.0
P2027,2027,Flandres - Lycée Vieljeux,"",46.177886,-1.150407,0,A6656,2023-10-20 04:01:38.0
P2028,2028,Flandres - Lycée Vieljeux,"",46.177992,-1.150277,0,A6656,2023-10-20 04:01:38.0
P2029,2029,François Viète,[FVietNi] AScen,46.192724,-1.153702,0,A4957,2023-10-20 04:01:38.0
P2030,2030,François Viète,[FVietPV] Abri,46.192872,-1.153819,0,A4957,2023-10-20 04:01:38.0
P2031,2031,Georges Triaud,"",46.180189,-1.140496,0,A4944,2023-10-20 04:01:38.0
P2032,2032,Georges Triaud,"",46.180178,-1.140423,0,A4944,2023-10-20 04:01:38.0
P2033,2033,Grand Mur,"",46.179222,-1.157639,0,A4947,2023-10-20 04:01:38.0
P2034,2034,Grand Mur,"",46.17916,-1.157959,0,A4947,2023-10-20 04:01:38.0
P2035,2035,Jean Perrin,"",46.187494,-1.154519,0,A4958,2023-10-20 04:01:38.0
P2036,2036,La Butte,[ButteNi] AScen,46.190786,-1.148397,0,A4942,2023-10-20 04:01:38.0
P2037,2037,La Butte,[ButtePV] Abri,46.190786,-1.148222,0,A4942,2023-10-20 04:01:38.0
P2038,2038,La Mariennée,"",46.185097,-1.14168,0,A4945,2023-10-20 04:01:38.0
P2039,2039,La Mariennée,"",46.185112,-1.141733,0,A4945,2023-10-20 04:01:38.0
P2040,2040,La Plouzière,"",46.18624,-1.165819,0,A5916,2023-10-20 04:01:38.0
P2041,2041,La Plouzière,"",46.186221,-1.165831,0,A5916,2023-10-20 04:01:38.0
P2042,2042,La Tramontane,[TramoPV] Abri,46.178113,-1.153741,0,A4509,2023-10-20 04:01:38.0
P2043,2043,La Vallée,[VallePV] AScen,46.173541,-1.160994,0,A4504,2023-10-20 04:01:38.0
P2044,2044,La Vallée,[ValleVj] AScen,46.173644,-1.160875,0,A4504,2023-10-20 04:01:38.0
P2045,2045,Le Bassin,"",46.182446,-1.154999,0,A4954,2023-10-20 04:01:38.0
P2047,2047,Le Bonnodeau,"",46.182054,-1.172116,0,A4518,2023-10-20 04:01:38.0
P2048,2048,Le Rayon d'Or,[RayOrBo] Abri,46.191391,-1.147263,0,A5715,2023-10-20 04:01:38.0
P2049,2049,Le Rayon d'Or,[RayOrLg] Abri,46.191469,-1.147197,0,A5715,2023-10-20 04:01:38.0
P2050,2050,L'Ebeaupin,"",46.18259,-1.140587,0,A4948,2023-10-20 04:01:38.0
P2051,2051,L'Ebeaupin,"",46.182603,-1.140694,0,A4948,2023-10-20 04:01:38.0
P2052,2052,Les Abricotiers,"",46.18071,-1.158822,0,A7261,2023-10-20 04:01:38.0
P2053,2053,Les Abricotiers,"",46.180393,-1.159012,0,A7261,2023-10-20 04:01:38.0
P2054,2054,Les Charmilles,[CharmPV] AScen,46.175747,-1.159594,0,A4508,2023-10-20 04:01:38.0
P2055,2055,Les Charmilles,[CharmVj] AScen,46.175888,-1.15938,0,A4508,2023-10-20 04:01:38.0
P2056,2056,Les Gonthières,"",46.176649,-1.153105,0,A4950,2023-10-20 04:01:38.0
P2057,2057,Les Gonthières,[GnthrVj] AScen,46.176777,-1.152755,0,A4950,2023-10-20 04:01:38.0
P2058,2058,Les Greffières,[GrffiBo] Abri,46.189844,-1.147736,0,A6658,2023-10-20 04:01:38.0
P2059,2059,Les Greffières,[GrffiLg] ASpln,46.189838,-1.147286,0,A6658,2023-10-20 04:01:38.0
P2060,2060,Les Néfliers,[NefliNi] AScen,46.182033,-1.163794,0,A4951,2023-10-20 04:01:38.0
P2061,2061,Les Néfliers,[NefliPV] Abri,46.182144,-1.163388,0,A4951,2023-10-20 04:01:38.0
P2062,2062,Les Pommiers,[PommiNi] AScen,46.1834,-1.160411,0,A4952,2023-10-20 04:01:38.0
P2063,2063,Les Pommiers,[PommiPV] Abri,46.183497,-1.16008,0,A4952,2023-10-20 04:01:38.0
P2064,2064,Les Vanneaux,[VanneNi] AScen,46.187205,-1.158822,0,A6861,2023-10-20 04:01:38.0
P2065,2065,Les Vanneaux,[VannePV] Abri,46.18668,-1.15895,0,A6861,2023-10-20 04:01:38.0
P2066,2066,Mairie de Lagord,"",46.190148,-1.153426,0,A4960,2023-10-20 04:01:38.0
P2067,2067,P+R Les Greffières,[PRGreBo] Abri,46.192227,-1.146408,0,A6657,2023-10-20 04:01:38.0
P2068,2068,Pas des Laquais,[PaLaqPV] Abri,46.172175,-1.163488,0,A4505,2023-10-20 04:01:38.0
P2069,2069,Pas des Laquais,[PaLaqVj] AScln,46.172094,-1.16338,0,A4505,2023-10-20 04:01:38.0
P2070,2070,RTCR,[RTCRPV] AScen,46.17725,-1.157022,0,A1491,2023-10-20 04:01:38.0
P2071,2071,RTCR,[RTCRVj] AScen,46.177277,-1.156674,0,A1491,2023-10-20 04:01:38.0
P2072,2072,ZAC La Vallée,[ZVallPV] Abri,46.173519,-1.166038,0,A4506,2023-10-20 04:01:38.0
P2073,2073,ZAC La Vallée,[ZVallVj] Abri,46.173458,-1.1661,0,A4506,2023-10-20 04:01:38.0
P2074,2074,Zone d'Activités,[ZoActBo] Abri,46.185852,-1.151461,0,A1494,2023-10-20 04:01:38.0
P2075,2075,Zone d'Activités,[ZoActLg] ASpln,46.186527,-1.150416,0,A1494,2023-10-20 04:01:38.0
P2400,2400,Bourg de L'Houmeau,"",46.193222,-1.187016,0,A1415,2023-10-20 04:01:38.0
P2401,2401,Charles Dervau,"",46.189875,-1.188746,0,A4513,2023-10-20 04:01:38.0
P2402,2402,Charles Dervau,"",46.189852,-1.188693,0,A4513,2023-10-20 04:01:38.0
P2403,2403,Fief Cotteret,"",46.190855,-1.17554,0,A4515,2023-10-20 04:01:38.0
P2404,2404,J.Toussaint,"",46.190017,-1.183543,0,A5838,2023-10-20 04:01:38.0
P2405,2405,J.Toussaint,"",46.190051,-1.183453,0,A5838,2023-10-20 04:01:38.0
P2406,2406,La Genillière,"",46.193289,-1.173569,0,A4516,2023-10-20 04:01:38.0
P2407,2407,Le Chêne,"",46.192824,-1.182037,0,A4514,2023-10-20 04:01:38.0
P2408,2408,Le Clos du Chêne,"",46.193245,-1.183854,0,A4512,2023-10-20 04:01:38.0
P2409,2409,Le Cormier,"",46.191633,-1.185293,0,A4511,2023-10-20 04:01:38.0
P2410,2410,Les Mouettes,"",46.195987,-1.181969,0,A4517,2023-10-20 04:01:38.0
P2411,2411,Mitterrand,"",46.185593,-1.185779,0,A7238,2023-10-20 04:01:38.0
P2412,2412,Mitterrand,"",46.186366,-1.187589,0,A7238,2023-10-20 04:01:38.0
P2413,2413,Mitterrand,"",46.18616,-1.185021,0,A7238,2023-10-20 04:01:38.0
P2414,2414,Monsidun,"",46.184147,-1.189059,0,A7237,2023-10-20 04:01:38.0
P2415,2415,Monsidun,"",46.184267,-1.18918,0,A7237,2023-10-20 04:01:38.0
P2416,2416,Moulin du Bonheur,"",46.185876,-1.178425,0,A4510,2023-10-20 04:01:38.0
P2417,2417,Moulin du Bonheur,"",46.185617,-1.177251,0,A4510,2023-10-20 04:01:38.0
P2419,2419,Place des Poètes,"",46.187678,-1.185999,0,A7239,2023-10-20 04:01:38.0
P2420,2420,Rose des Vents,"",46.195544,-1.186077,0,A4520,2023-10-20 04:01:38.0
P2421,2421,Victor Hugo,"",46.186668,-1.190726,0,A6092,2023-10-20 04:01:38.0
P2422,2422,Victor Hugo,"",46.186112,-1.190917,0,A6092,2023-10-20 04:01:38.0
P2500,2500,Centre Commercial de Nieul,[CCoNiNi] AScen,46.202277,-1.175016,0,A1976,2023-10-20 04:01:38.0
P2501,2501,Centre Commercial de Nieul,[CCoNiPV] Abri,46.202269,-1.174822,0,A1976,2023-10-20 04:01:38.0
P2502,2502,Grand Large,"",46.202445,-1.176605,0,A6534,2023-10-20 04:01:38.0
P2503,2503,Grand Large,"",46.201664,-1.174903,0,A6534,2023-10-20 04:01:38.0
P2504,2504,Jardins du Gô,"",46.210065,-1.157218,0,A6078,2023-10-20 04:01:38.0
P2505,2505,Jardins du Gô,"",46.210171,-1.157349,0,A6078,2023-10-20 04:01:38.0
P2506,2506,Lauzières,[LauziNi] AScen,46.208344,-1.186213,0,A1979,2023-10-20 04:01:38.0
P2507,2507,Lauzières,[LauziPV] Abri,46.208269,-1.186302,0,A1979,2023-10-20 04:01:38.0
P2508,2508,Le Grimaud,"",46.201017,-1.171956,0,A1981,2023-10-20 04:01:38.0
P2509,2509,Le Grimaud,"",46.200946,-1.171939,0,A1981,2023-10-20 04:01:38.0
P2510,2510,Le Nalbret,"",46.200749,-1.166971,0,A5721,2023-10-20 04:01:38.0
P2511,2511,Le Nalbret,"",46.200684,-1.167019,0,A5721,2023-10-20 04:01:38.0
P2512,2512,Le Payaud,"",46.200531,-1.125168,0,A5014,2023-10-20 04:01:38.0
P2513,2513,Le Payaud,"",46.200988,-1.123912,0,A5014,2023-10-20 04:01:38.0
P2514,2514,Le Payaud,"",46.200815,-1.12452,0,A5014,2023-10-20 04:01:38.0
P2515,2515,Les Allées Vieljeux,[AlVieNi] AScen,46.206211,-1.160266,0,A5722,2023-10-20 04:01:38.0
P2516,2516,Les Allées Vieljeux,[AlViePV] Abri,46.206019,-1.160408,0,A5722,2023-10-20 04:01:38.0
P2517,2517,Les Hauts de Nieul,[HNieuNi] AScen,46.204588,-1.180458,0,A4521,2023-10-20 04:01:38.0
P2518,2518,Les Hauts de Nieul,[HNieuPV] Abri,46.2045,-1.180497,0,A4521,2023-10-20 04:01:38.0
P2519,2519,L'Ouaille,[OuailPV] Abri,46.209475,-1.184938,0,A1978,2023-10-20 04:01:38.0
P2520,2520,Mairie de Nieul-sur-Mer,[MaiNiNi] AScen,46.20943,-1.163394,0,A5723,2023-10-20 04:01:38.0
P2521,2521,Mairie de Nieul-sur-Mer,[MaiNiPV] Abri,46.209305,-1.163822,0,A5723,2023-10-20 04:01:38.0
P2522,2522,Moulin Ragot,[MoRagNi] AScen,46.199822,-1.159925,0,A1983,2023-10-20 04:01:38.0
P2523,2523,Moulin Ragot,[MoRagPV] Abri,46.199619,-1.159888,0,A1983,2023-10-20 04:01:38.0
P2524,2524,Nieul Le Gô,[GoNieNi] AScen,46.209022,-1.158122,0,A1980,2023-10-20 04:01:38.0
P2525,2525,Nieul Le Gô,[GoNiePV] Abri,46.20883,-1.158291,0,A1980,2023-10-20 04:01:38.0
P2526,2526,Salle Polyvalente de Nieul,[SaPNiNi] AScen,46.204791,-1.172047,0,A1985,2023-10-20 04:01:38.0
P2527,2527,Salle Polyvalente de Nieul,[SaPNiPV] Abri,46.204586,-1.17198,0,A1985,2023-10-20 04:01:38.0
P2528,2528,Val Hureau,"",46.211655,-1.159966,0,A1986,2023-10-20 04:01:38.0
P2529,2529,Val Hureau,"",46.211652,-1.16007,0,A1986,2023-10-20 04:01:38.0
P2700,2700,Coulonge,"",46.226502,-1.139587,0,A1615,2023-10-20 04:01:38.0
P2701,2701,Coulonge,"",46.226046,-1.140115,0,A1615,2023-10-20 04:01:38.0
P2702,2702,Eglise de Marsilly,"",46.230283,-1.138157,0,A6533,2023-10-20 04:01:38.0
P2703,2703,Horizon,"",46.232208,-1.145081,0,A1616,2023-10-20 04:01:38.0
P2704,2704,Les Moindreaux,"",46.239833,-1.123083,0,A7046,2023-10-20 04:01:38.0
P2705,2705,Mairie de Marsilly,"",46.229771,-1.134281,0,A5717,2023-10-20 04:01:38.0
P2706,2706,Mairie de Marsilly,"",46.230006,-1.135357,0,A5717,2023-10-20 04:01:38.0
P2707,2707,Moulin d'Amour de Marsilly,"",46.230738,-1.148222,0,A5718,2023-10-20 04:01:38.0
P2708,2708,Moulin Neuf,"",46.220459,-1.149275,0,A1618,2023-10-20 04:01:38.0
P2709,2709,Moulin Neuf,"",46.220509,-1.14933,0,A1618,2023-10-20 04:01:38.0
P2710,2710,Nantilly Beauvoirs,"",46.233026,-1.129802,0,A1620,2023-10-20 04:01:38.0
P2711,2711,Nantilly Beauvoirs,"",46.234302,-1.128964,0,A1620,2023-10-20 04:01:38.0
P2712,2712,Place de Nantilly,"",46.229624,-1.132065,0,A1621,2023-10-20 04:01:38.0
P2713,2713,Place de Nantilly,"",46.229903,-1.131062,0,A1621,2023-10-20 04:01:38.0
P2800,2800,Les Tamaris,"",46.246908,-1.118184,0,A5557,2023-10-20 04:01:38.0
P2801,2801,Les Tamaris,"",46.245642,-1.11943,0,A5557,2023-10-20 04:01:38.0
P2802,2802,Mairie d'Esnandes,"",46.24959,-1.115963,0,A1158,2023-10-20 04:01:38.0
P2803,2803,Mairie d'Esnandes,"",46.249649,-1.11606,0,A1158,2023-10-20 04:01:38.0
P2804,2804,Salle des Fêtes d'Esnandes,"",46.251874,-1.114527,0,A5707,2023-10-20 04:01:38.0
P2805,2805,Salle des Fêtes d'Esnandes,"",46.252175,-1.114523,0,A5707,2023-10-20 04:01:38.0
P3000,3000,18 Juin,[18juiBe] ASpln,46.176066,-1.112947,0,A6084,2023-10-20 04:01:38.0
P3001,3001,18 Juin,[18juiMn] Abri,46.176016,-1.112566,0,A6084,2023-10-20 04:01:38.0
P3002,3002,Beaulieu Sud,[BeSudBe] ASpln,46.173797,-1.119838,0,A5854,2023-10-20 04:01:38.0
P3003,3003,Beaulieu Sud,[BeSudMn] ASpln,46.173902,-1.119866,0,A5854,2023-10-20 04:01:38.0
P3004,3004,Allemagne,[AllemBe] Abri,46.177769,-1.121641,0,A5725,2023-10-20 04:01:38.0
P3005,3005,Allemagne,[AllemMn] Abri,46.178025,-1.121747,0,A5725,2023-10-20 04:01:38.0
P3006,3006,Alsace Lorraine,"",46.18703,-1.112862,0,A4990,2023-10-20 04:01:38.0
P3007,3007,Alsace Lorraine,"",46.187083,-1.112891,0,A4990,2023-10-20 04:01:38.0
P3008,3008,Baillac,[BaillPV] AScln,46.183716,-1.117452,0,A4991,2023-10-20 04:01:38.0
P3009,3009,Baillac,[BaillSX] AScln,46.183505,-1.117102,0,A4991,2023-10-20 04:01:38.0
P3010,3010,Beaulieu Centre,[BeCenBe] ASpln,46.17753,-1.10643,0,A6085,2023-10-20 04:01:38.0
P3011,3011,Beaulieu Centre,[BeCenMn] ASpln,46.17748,-1.106613,0,A6085,2023-10-20 04:01:38.0
P3012,3012,P+R Beaulieu,[BeP+RMn] Abri,46.179163,-1.103505,0,A8030,2023-10-20 04:01:38.0
P3013,3013,Beaulieu Plus,[BePluBe] ASpln,46.176563,-1.109716,0,A8029,2023-10-20 04:01:38.0
P3014,3014,Beaulieu Plus,[BePluMn] ASpln,46.176513,-1.10988,0,A8029,2023-10-20 04:01:38.0
P3015,3015,Belle Etoile,"",46.181402,-1.099635,0,A5032,2023-10-20 04:01:38.0
P3016,3016,Belle Etoile,"",46.181523,-1.099142,0,A5032,2023-10-20 04:01:38.0
P3017,3017,Bourgogne,[BgognBe] ASpln,46.172363,-1.124438,0,A5712,2023-10-20 04:01:38.0
P3018,3018,Centre de Soins,[CSoinPV] Abri,46.175141,-1.131386,0,A2270,2023-10-20 04:01:38.0
P3019,3019,CIL,[CILPuPu],46.18309,-1.120651,0,A4998,2023-10-20 04:01:38.0
P3020,3020,CIL,[CILPuPV],46.182926,-1.120732,0,A4998,2023-10-20 04:01:38.0
P3021,3021,Clinique,[CliniBe] Abri,46.17363,-1.126758,0,A5713,2023-10-20 04:01:38.0
P3022,3022,Eglise de Puilboreau,[EglPuPV] Abri,46.18578,-1.118194,0,A5005,2023-10-20 04:01:38.0
P3023,3023,Eglise de Puilboreau,[EglPuSX] AScen,46.185488,-1.117927,0,A5005,2023-10-20 04:01:38.0
P3024,3024,Espace Commercial,[EsComBe] Abri,46.175016,-1.116427,0,A6083,2023-10-20 04:01:38.0
P3025,3025,Espace Commercial,[EsComMn] Abri,46.174938,-1.116627,0,A6083,2023-10-20 04:01:38.0
P3026,3026,Fief de la Mare,"",46.178252,-1.130398,0,A5007,2023-10-20 04:01:38.0
P3027,3027,Fief de la Mare,"",46.178071,-1.130757,0,A5007,2023-10-20 04:01:38.0
P3028,3028,France,[FrncePV] Abri,46.177002,-1.117266,0,A6839,2023-10-20 04:01:38.0
P3029,3029,France,[FrnceSX] AScen,46.177144,-1.117,0,A6839,2023-10-20 04:01:38.0
P3030,3030,Grammont,"",46.185556,-1.098434,0,A6547,2023-10-20 04:01:38.0
P3031,3031,Grammont,"",46.185861,-1.099186,0,A6547,2023-10-20 04:01:38.0
P3032,3032,La Cossarderie,"",46.184911,-1.095457,0,A6691,2023-10-20 04:01:38.0
P3033,3033,La Cossarderie,"",46.184941,-1.095601,0,A6691,2023-10-20 04:01:38.0
P3034,3034,La Descenderie,[DescePV] Abri,46.176333,-1.13445,0,A4943,2023-10-20 04:01:38.0
P3035,3035,La Motte,"",46.183945,-1.096434,0,A5011,2023-10-20 04:01:38.0
P3036,3036,La Motte,"",46.182784,-1.096968,0,A5011,2023-10-20 04:01:38.0
P3037,3037,L'Abbaye,"",46.194611,-1.119099,0,A5012,2023-10-20 04:01:38.0
P3038,3038,L'Abbaye,"",46.194673,-1.119142,0,A5012,2023-10-20 04:01:38.0
P3039,3039,Le Château,[ChteaPV] AScln,46.188072,-1.117691,0,A5013,2023-10-20 04:01:38.0
P3040,3040,Le Château,[ChteaSX] AScen,46.188102,-1.117469,0,A5013,2023-10-20 04:01:38.0
P3041,3041,Le Pressoir,"",46.181658,-1.123893,0,A6620,2023-10-20 04:01:38.0
P3042,3042,Le Pressoir,"",46.181715,-1.123507,0,A6620,2023-10-20 04:01:38.0
P3043,3043,Le Treuil,[LeTreBe] ASpln,46.174302,-1.127505,0,A5030,2023-10-20 04:01:38.0
P3044,3044,Le Treuil,[LeTreMn] ASpln,46.174258,-1.127611,0,A5030,2023-10-20 04:01:38.0
P3045,3045,Les Fléneaux,"",46.181209,-1.11378,0,A5018,2023-10-20 04:01:38.0
P3046,3046,Les Fléneaux,"",46.181259,-1.113586,0,A5018,2023-10-20 04:01:38.0
P3047,3047,Les Grands Champs,[GraChPV] Abri,46.190227,-1.116049,0,A5019,2023-10-20 04:01:38.0
P3048,3048,Les Grands Champs,[GraChSX] AScen,46.190269,-1.115738,0,A5019,2023-10-20 04:01:38.0
P3049,3049,Les Rouillons,"",46.180565,-1.124643,0,A7254,2023-10-20 04:01:38.0
P3050,3050,Les Rouillons,"",46.180691,-1.124583,0,A7254,2023-10-20 04:01:38.0
P3051,3051,Les Vignes Pourpres,[VigPoPV] Abri,46.180975,-1.116233,0,A7523,2023-10-20 04:01:38.0
P3052,3052,Les Vignes Pourpres,[VigPoSX] AScen,46.181025,-1.116091,0,A7523,2023-10-20 04:01:38.0
P3053,3053,Malemort,"",46.177803,-1.114436,0,A6087,2023-10-20 04:01:38.0
P3054,3054,Treuil Gras,"",46.179142,-1.108098,0,A5727,2023-10-20 04:01:38.0
P3055,3055,Treuil Gras,"",46.178944,-1.108537,0,A5727,2023-10-20 04:01:38.0
P3400,3400,Champ de Foire,"",46.205549,-1.100894,0,A3232,2023-10-20 04:01:38.0
P3401,3401,Champ de Foire,"",46.205434,-1.100835,0,A3232,2023-10-20 04:01:38.0
P3402,3402,Fief Dompierre,"",46.199684,-1.098319,0,A3234,2023-10-20 04:01:38.0
P3403,3403,La Godinerie,"",46.213388,-1.070418,0,A6550,2023-10-20 04:01:38.0
P3404,3404,La Godinerie,"",46.213323,-1.070471,0,A6550,2023-10-20 04:01:38.0
P3405,3405,La Ribotelière,[RibotPV] Abri,46.206911,-1.109913,0,A3236,2023-10-20 04:01:38.0
P3406,3406,La Ribotelière,[RibotSX] AScen,46.207269,-1.113158,0,A3236,2023-10-20 04:01:38.0
P3407,3407,La Sauzaie,"",46.215036,-1.075423,0,A3237,2023-10-20 04:01:38.0
P3409,3409,L'Aubreçay (Rue J.Bart),"",46.210923,-1.135889,0,A1977,2023-10-20 04:01:38.0
P3410,3410,L'Aubreçay (Rue D.Trouin),"",46.210883,-1.134053,0,A1977,2023-10-20 04:01:38.0
P3411,3411,Le Paradis,[ParadSX] Abri,46.199252,-1.106216,0,A3239,2023-10-20 04:01:38.0
P3412,3412,Le Paradis,[ParadPV] Abri,46.199155,-1.106413,0,A3239,2023-10-20 04:01:38.0
P3413,3413,Océan,[OceanPV] Abri,46.206311,-1.105186,0,A3240,2023-10-20 04:01:38.0
P3414,3414,Océan,[OceanSX] AScln,46.206413,-1.105286,0,A3240,2023-10-20 04:01:38.0
P3415,3415,Salle des Fêtes de Saint-Xandre,[SFeSXPV] AScln,46.2028,-1.102769,0,A3246,2023-10-20 04:01:38.0
P3416,3416,Salle des Fêtes de Saint-Xandre,[SFeSXSX] AScen,46.203088,-1.10248,0,A3246,2023-10-20 04:01:38.0
P3417,3417,Trente Vents,"",46.213702,-1.093975,0,A3247,2023-10-20 04:01:38.0
P3418,3418,Trente Vents,"",46.214658,-1.094541,0,A3247,2023-10-20 04:01:38.0
P3419,3419,La Sauzaie,"",46.214945,-1.07538,0,A3237,2023-10-20 04:01:38.0
P3420,3420,Salle des Fêtes de Saint-Xandre,"",46.20203,-1.102325,0,A3246,2023-10-20 04:01:38.0
P3421,3421,Curie-Sports,"",46.206077,-1.092776,0,A5938,2023-10-20 04:01:38.0
P3422,3422,Curie-Sports,"",46.206049,-1.092706,0,A5938,2023-10-20 04:01:38.0
P3423,3423,Curie-Plumier,"",46.202858,-1.093294,0,A5939,2023-10-20 04:01:38.0
P3424,3424,Curie-Plumier,"",46.20288,-1.093195,0,A5939,2023-10-20 04:01:38.0
P3425,3425,Fief Dompierre,"",46.199893,-1.098178,0,A3234,2023-10-20 04:01:38.0
P4000,4000,Belle Croix,"",46.180002,-1.048841,0,A5701,2023-10-20 04:01:38.0
P4001,4001,Belle Croix,"",46.179351,-1.048765,0,A5701,2023-10-20 04:01:38.0
P4002,4002,Belle Croix,"",46.17961,-1.048457,0,A5701,2023-10-20 04:01:38.0
P4003,4003,Belle Croix,"",46.179288,-1.048824,0,A5701,2023-10-20 04:01:38.0
P4004,4004,Chagnolet,[ChagnCB] AScen,46.176383,-1.092566,0,A1064,2023-10-20 04:01:38.0
P4005,4005,Chagnolet,[ChagnDo] Abri,46.176372,-1.092402,0,A1064,2023-10-20 04:01:38.0
P4006,4006,Chagnolet les Frênes,[ChaFrCB] Abri,46.174411,-1.092344,0,A5702,2023-10-20 04:01:38.0
P4007,4007,Chagnolet les Frênes,[ChaFrDo] Abri,46.174408,-1.092236,0,A5702,2023-10-20 04:01:38.0
P4008,4008,Chagnolet Rompsay,[ChaRoCB] AScen,46.171327,-1.094547,0,A5703,2023-10-20 04:01:38.0
P4009,4009,Chagnolet Rompsay,[ChaRoDo] Abri,46.171213,-1.094463,0,A5703,2023-10-20 04:01:38.0
P4010,4010,Champlain,"",46.184439,-1.065305,0,A5708,2023-10-20 04:01:38.0
P4011,4011,Champlain,"",46.184404,-1.064967,0,A5708,2023-10-20 04:01:38.0
P4012,4012,Collège Marc Chagall,"",46.188668,-1.058008,0,A6350,2023-10-20 04:01:38.0
P4013,4013,Corne Neuve,"",46.174219,-1.06482,0,A8003,2023-10-20 04:01:38.0
P4014,4014,Corne Neuve,"",46.174339,-1.064707,0,A8003,2023-10-20 04:01:38.0
P4015,4015,Galland,"",46.188583,-1.068446,0,A1063,2023-10-20 04:01:38.0
P4016,4016,Galland,"",46.188651,-1.068429,0,A1063,2023-10-20 04:01:38.0
P4017,4017,Garenne,"",46.186183,-1.068884,0,A5704,2023-10-20 04:01:38.0
P4018,4018,Garenne,"",46.186214,-1.068752,0,A5704,2023-10-20 04:01:38.0
P4019,4019,La Fromagère,"",46.191324,-1.074976,0,A3885,2023-10-20 04:01:38.0
P4020,4020,La Fromagère,"",46.191459,-1.075866,0,A3885,2023-10-20 04:01:38.0
P4021,4021,La Grelèterie,"",46.186665,-1.089126,0,A1071,2023-10-20 04:01:38.0
P4022,4022,La Grelèterie,"",46.186475,-1.089871,0,A1071,2023-10-20 04:01:38.0
P4023,4023,Les Brandes,"",46.18743,-1.08382,0,A1073,2023-10-20 04:01:38.0
P4024,4024,Les Brandes,"",46.187514,-1.083874,0,A1073,2023-10-20 04:01:38.0
P4025,4025,Les Fleurs,"",46.186975,-1.070096,0,A7012,2023-10-20 04:01:38.0
P4026,4026,Les Grelettes,"",46.186024,-1.06039,0,A5705,2023-10-20 04:01:38.0
P4027,4027,Les Grelettes,"",46.185934,-1.060396,0,A5705,2023-10-20 04:01:38.0
P4028,4028,Libération,"",46.192745,-1.057834,0,A6579,2023-10-20 04:01:38.0
P4029,4029,Libération,"",46.192697,-1.058019,0,A6579,2023-10-20 04:01:38.0
P4030,4030,Mairie de Dompierre,"",46.189331,-1.062076,0,A5706,2023-10-20 04:01:38.0
P4031,4031,Mairie de Dompierre,"",46.189355,-1.062121,0,A5706,2023-10-20 04:01:38.0
P4032,4032,Mouillepieds,"",46.207376,-1.04897,0,A1074,2023-10-20 04:01:38.0
P4033,4033,Mouillepieds,"",46.207278,-1.048909,0,A1074,2023-10-20 04:01:38.0
P4035,4035,Four à Chaux,"",46.175198,-1.065228,0,A4035,2023-10-20 04:01:38.0
P4400,4400,Chavagne,"",46.194177,-1.022582,0,A3160,2023-10-20 04:01:38.0
P4401,4401,Chavagne,"",46.194066,-1.022615,0,A3160,2023-10-20 04:01:38.0
P4402,4402,Chemin de la Ville,"",46.183241,-1.009776,0,A6089,2023-10-20 04:01:38.0
P4403,4403,Eglise de Sainte Soulle,"",46.185821,-1.009399,0,A3163,2023-10-20 04:01:38.0
P4404,4404,Eglise de Sainte Soulle,"",46.185725,-1.009417,0,A3163,2023-10-20 04:01:38.0
P4405,4405,Fief des Prises,"",46.203159,-1.026247,0,A6548,2023-10-20 04:01:38.0
P4406,4406,La Chevalerie,"",46.190675,-1.018006,0,A6549,2023-10-20 04:01:38.0
P4407,4407,La Grimenaudière,"",46.206209,-1.04775,0,A3886,2023-10-20 04:01:38.0
P4408,4408,La Grimenaudière,"",46.206248,-1.047862,0,A3886,2023-10-20 04:01:38.0
P4409,4409,Les Fortines,"",46.184424,-1.04445,0,A6088,2023-10-20 04:01:38.0
P4410,4410,Les Fortines,"",46.184527,-1.044475,0,A6088,2023-10-20 04:01:38.0
P4411,4411,Les Fortines,"",46.184391,-1.044155,0,A6088,2023-10-20 04:01:38.0
P4414,4414,Les Guillaudes,"",46.190058,-1.023038,0,A5730,2023-10-20 04:01:38.0
P4415,4415,Les Guillaudes,"",46.18998,-1.023033,0,A5730,2023-10-20 04:01:38.0
P4416,4416,Les Petites Rivières,"",46.200794,-1.050156,0,A3167,2023-10-20 04:01:38.0
P4417,4417,Les Petites Rivières,"",46.200806,-1.050339,0,A3167,2023-10-20 04:01:38.0
P4418,4418,Mairie de Sainte Soulle,"",46.18741,-1.012672,0,A3168,2023-10-20 04:01:38.0
P4419,4419,Mairie de Sainte Soulle,"",46.187368,-1.012692,0,A3168,2023-10-20 04:01:38.0
P4420,4420,Pont de Grolleau,"",46.195429,-1.052767,0,A5731,2023-10-20 04:01:38.0
P4421,4421,Pont de Grolleau,"",46.195376,-1.052738,0,A5731,2023-10-20 04:01:38.0
P4422,4422,Pont de la Fumate,"",46.188959,-1.052025,0,A5732,2023-10-20 04:01:38.0
P4423,4423,Pont de la Fumate,"",46.188937,-1.051858,0,A5732,2023-10-20 04:01:38.0
P4424,4424,La Roche Bertin,"",46.188606,-1.016462,0,A5729,2023-10-20 04:01:38.0
P4425,4425,La Roche Bertin,"",46.188548,-1.016483,0,A5729,2023-10-20 04:01:38.0
P4426,4426,Saint-Coux,"",46.183268,-0.973165,0,A3170,2023-10-20 04:01:38.0
P4427,4427,Saint-Coux,"",46.184484,-0.975858,0,A3170,2023-10-20 04:01:38.0
P4428,4428,Usseau Ecole,"",46.201978,-1.030399,0,A3171,2023-10-20 04:01:38.0
P4429,4429,Usseau Ecole,"",46.202129,-1.030496,0,A3171,2023-10-20 04:01:38.0
P4600,4600,Eglise de Vérines,"",46.193678,-0.967899,0,A6409,2023-10-20 04:01:38.0
P4601,4601,Eglise de Vérines,"",46.193854,-0.968016,0,A6409,2023-10-20 04:01:38.0
P4602,4602,Fontpatour,"",46.178863,-0.956279,0,A3164,2023-10-20 04:01:38.0
P4603,4603,Fontpatour,"",46.178666,-0.956539,0,A3164,2023-10-20 04:01:38.0
P4604,4604,Les Gués,"",46.178265,-0.950975,0,A4636,2023-10-20 04:01:38.0
P4605,4605,Loiré Le Moulin,"",46.20932,-0.987974,0,A5225,2023-10-20 04:01:38.0
P4606,4606,Mairie de Vérines,"",46.192232,-0.965141,0,A7282,2023-10-20 04:01:38.0
P4607,4607,Mairie de Vérines,"",46.192341,-0.96524,0,A7282,2023-10-20 04:01:38.0
P4608,4608,Pas de l'Ane,"",46.206913,-0.990455,0,A4633,2023-10-20 04:01:38.0
P4609,4609,Pas de l'Ane,"",46.20671,-0.99019,0,A4633,2023-10-20 04:01:38.0
P4610,4610,Stade de Vérines,"",46.196211,-0.972212,0,A6508,2023-10-20 04:01:38.0
P4611,4611,Stade de Vérines,"",46.196218,-0.971935,0,A6508,2023-10-20 04:01:38.0
P4612,4612,Villa Laurius,"",46.210365,-0.990207,0,A3626,2023-10-20 04:01:38.0
P4613,4613,Villa Laurius,"",46.210449,-0.990157,0,A3626,2023-10-20 04:01:38.0
P4614,4614,Fontpatour,"",46.179051,-0.957006,0,A3164,2023-10-20 04:01:38.0
P5000,5000,Aristide Bergès,[ABergDB] AScen,46.162694,-1.100363,0,A7362,2023-10-20 04:01:38.0
P5001,5001,Aristide Bergès,[ABergZI] AScen,46.162188,-1.100222,0,A7362,2023-10-20 04:01:38.0
P5002,5002,Blaise Pascal,[BlPasDB] AScen,46.159566,-1.106147,0,A4972,2023-10-20 04:01:38.0
P5003,5003,Blaise Pascal,[BlPasZI] AScen,46.159525,-1.105855,0,A4972,2023-10-20 04:01:38.0
P5004,5004,Rompsay,[RompsCB] Abri,46.167886,-1.112763,0,A5000,2023-10-20 04:01:38.0
P5005,5005,Rompsay,[RompsPe] Abri,46.167602,-1.111697,0,A5000,2023-10-20 04:01:38.0
P5006,5006,Chemin des Rossignols,[ChRosCB] Abri,46.165463,-1.1193,0,A4900,2023-10-20 04:01:38.0
P5007,5007,Chemin des Rossignols,[ChRosPe] AScen,46.165355,-1.119358,0,A4900,2023-10-20 04:01:38.0
P5008,5008,Claude Chappé,[ClChaDB] AScen,46.163769,-1.106066,0,A4973,2023-10-20 04:01:38.0
P5009,5009,Claude Chappé,[ClChaZI] AScen,46.163766,-1.1058,0,A4973,2023-10-20 04:01:38.0
P5010,5010,Eglise de Périgny,[EPeriDB] Abri,46.15263,-1.108694,0,A4976,2023-10-20 04:01:38.0
P5011,5011,Eglise de Périgny,[EPeriSR] Abri,46.152591,-1.108516,0,A4976,2023-10-20 04:01:38.0
P5012,5012,Frédéric Sauvage,[FrSauDB] AScen,46.161786,-1.108547,0,A4977,2023-10-20 04:01:38.0
P5013,5013,Frédéric Sauvage,[FrSauZI] AScen,46.1618,-1.108383,0,A4977,2023-10-20 04:01:38.0
P5014,5014,Joliot-Curie,[JoCurDB] AScen,46.15728,-1.107508,0,A4970,2023-10-20 04:01:38.0
P5015,5015,Joliot-Curie,[JoCurZI] AScen,46.157563,-1.106722,0,A4970,2023-10-20 04:01:38.0
P5016,5016,La Bourgne,[BgneDB] Abri,46.162575,-1.091094,0,A4969,2023-10-20 04:01:38.0
P5017,5017,La Bourgne,[BgneZI] AScen,46.16205,-1.093011,0,A4969,2023-10-20 04:01:38.0
P5018,5018,La Caillaude,[CaillDB] Abri,46.158366,-1.082416,0,A4978,2023-10-20 04:01:38.0
P5019,5019,La Caillaude,[CaillSR] AScen,46.158177,-1.082124,0,A4978,2023-10-20 04:01:38.0
P5020,5020,La Coie,"",46.155003,-1.088149,0,A7448,2023-10-20 04:01:38.0
P5021,5021,La Moulinette,[MlintDB] Abri,46.152152,-1.104166,0,A5033,2023-10-20 04:01:38.0
P5022,5022,La Moulinette,[MlintSR] AScen,46.152169,-1.10328,0,A5033,2023-10-20 04:01:38.0
P5023,5023,La Vaurie,[VauriCB] Abri,46.151544,-1.093816,0,A4979,2023-10-20 04:01:38.0
P5024,5024,Les Aigrettes,[AigreDB] Abri,46.159469,-1.087116,0,A7006,2023-10-20 04:01:38.0
P5025,5025,Les Aigrettes,[AigreSR] AScen,46.159361,-1.08755,0,A7006,2023-10-20 04:01:38.0
P5026,5026,Les Charmes,"",46.171325,-1.107338,0,A6850,2023-10-20 04:01:38.0
P5027,5027,Les Coureilles,[CrlleDB] Abri,46.15773,-1.089238,0,A6079,2023-10-20 04:01:38.0
P5028,5028,Les Coureilles,[CrlleSR] AScen,46.157688,-1.088497,0,A6079,2023-10-20 04:01:38.0
P5029,5029,Les Lilas,[LilasDB] Abri,46.153225,-1.099838,0,A4981,2023-10-20 04:01:38.0
P5030,5030,Les Lilas,[LilasSR] AScen,46.153033,-1.100083,0,A4981,2023-10-20 04:01:38.0
P5031,5031,Les Palombes,[PlbesDB] Abri,46.152283,-1.084791,0,A4982,2023-10-20 04:01:38.0
P5032,5032,Les Palombes,[PlbesSR] AScen,46.152258,-1.084861,0,A4982,2023-10-20 04:01:38.0
P5033,5033,Les Platanes,[LPlatCB] AScen,46.170544,-1.104661,0,A4493,2023-10-20 04:01:38.0
P5034,5034,Les Platanes,[LPlatDo] AScen,46.1707,-1.103816,0,A4493,2023-10-20 04:01:38.0
P5035,5035,Les Tausières,[TausiCB] Abri,46.168844,-1.108783,0,A4369,2023-10-20 04:01:38.0
P5036,5036,Les Tausières,[TausiDo] AScen,46.168658,-1.108977,0,A4369,2023-10-20 04:01:38.0
P5037,5037,Les Tourterelles,"",46.150174,-1.089917,0,A6580,2023-10-20 04:01:38.0
P5038,5038,Les Vallées,"",46.169987,-1.106358,0,A6851,2023-10-20 04:01:38.0
P5039,5039,Louis Lumière,[LLumiCB] AScln,46.163044,-1.106175,0,A4983,2023-10-20 04:01:38.0
P5040,5040,Louis Lumière,[LLumiPe] AScen,46.162819,-1.106033,0,A4983,2023-10-20 04:01:38.0
P5043,5043,Maison de Retraite,[MRetrCB] AScen,46.167827,-1.115725,0,A4916,2023-10-20 04:01:38.0
P5044,5044,Maison de Retraite,[MRetrPe] AScen,46.16778,-1.115622,0,A4916,2023-10-20 04:01:38.0
P5045,5045,Parc Aquatique,[PAquaCB] Abri,46.156611,-1.098508,0,A4963,2023-10-20 04:01:38.0
P5046,5046,Parc Aquatique,[PAquaPe] AScln,46.157777,-1.100188,0,A4963,2023-10-20 04:01:38.0
P5047,5047,Passy,[PassyDB] Abri,46.161561,-1.09678,0,A4964,2023-10-20 04:01:38.0
P5048,5048,Passy,[PassyZI] ASpln,46.16148,-1.096202,0,A4964,2023-10-20 04:01:38.0
P5049,5049,Paul Langevin,[PauLaCB] Abri,46.16093,-1.103644,0,A4985,2023-10-20 04:01:38.0
P5050,5050,Paul Langevin,[PauLaPe] AScen,46.160619,-1.103469,0,A4985,2023-10-20 04:01:38.0
P5051,5051,Pommeraie,[PmmerDB] Abri,46.154733,-1.096041,0,A4986,2023-10-20 04:01:38.0
P5052,5052,Pommeraie,[PmmerSR] Abri,46.154661,-1.095794,0,A4986,2023-10-20 04:01:38.0
P5053,5053,Port Louis,[PoLouMr] AScen,46.154447,-1.097069,0,A7287,2023-10-20 04:01:38.0
P5054,5054,Port Louis,[PoLouPe] AScen,46.15443,-1.096855,0,A7287,2023-10-20 04:01:38.0
P5055,5055,Quatre Chevaliers,[4ChevDB] Abri,46.154455,-1.112241,0,A6082,2023-10-20 04:01:38.0
P5056,5056,Quatre Chevaliers,[4ChevZI] AScen,46.155116,-1.110533,0,A6082,2023-10-20 04:01:38.0
P5058,5058,Rue du Poteau,[RPotePe] AScen,46.164944,-1.109747,0,A6942,2023-10-20 04:01:38.0
P5059,5059,Salle Omnisports,[SOmniDB] Abri,46.155461,-1.092591,0,A6080,2023-10-20 04:01:38.0
P5060,5060,Salle Omnisports,[SOmniSR] Abri,46.15538,-1.092552,0,A6080,2023-10-20 04:01:38.0
P5061,5061,Stade de Périgny,[StdPeDB] Abri,46.1554,-1.08383,0,A4988,2023-10-20 04:01:38.0
P5062,5062,Stade de Périgny,[StdPeSR] AScen,46.155266,-1.084177,0,A4988,2023-10-20 04:01:38.0
P5063,5063,Vaucanson,[VaucaDB] Abri,46.164888,-1.102011,0,A7363,2023-10-20 04:01:38.0
P5064,5064,Vaucanson,[VaucaZI] AScen,46.164677,-1.101905,0,A7363,2023-10-20 04:01:38.0
P5065,5065,ZI de Périgny,[ZIPerCB] AScln,46.159247,-1.101813,0,A7364,2023-10-20 04:01:38.0
P5066,5066,ZI de Périgny,[ZIPerPe] AScen,46.158875,-1.101583,0,A7364,2023-10-20 04:01:38.0
P5067,5067,Canal de Rompsay,[CanRoPe] AScen,46.167391,-1.109544,0,A6081,2023-10-20 04:01:38.0
P5068,5068,Canal de Rompsay,[CanRoCB] AScen,46.166513,-1.109108,0,A6081,2023-10-20 04:01:38.0
P5069,5069,La Vaurie,[VauriPe] AScen,46.151552,-1.093911,0,A4979,2023-10-20 04:01:38.0
P5400,5400,Mairie de Saint-Rogatien,[MaiSRDB] Abri,46.150849,-1.073075,0,A3059,2023-10-20 04:01:38.0
P5401,5401,Mairie de Saint-Rogatien,[MaiSRSR] AScen,46.150869,-1.073363,0,A3059,2023-10-20 04:01:38.0
P5402,5402,Néchalier,[NechaDB] Abri,46.149561,-1.06893,0,A5034,2023-10-20 04:01:38.0
P5403,5403,Néchalier,[NechaSR] AScen,46.149469,-1.068675,0,A5034,2023-10-20 04:01:38.0
P5404,5404,P+R Saint-Rogatien,[PRRogDB] Abri,46.148627,-1.062822,0,A5047,2023-10-20 04:01:38.0
P6000,6000,Calvaire,"",46.170076,-1.016366,0,A412,2023-10-20 04:01:38.0
P6001,6001,Centre-Bourg,"",46.167584,-1.024491,0,A411,2023-10-20 04:01:38.0
P6002,6002,Centre-Bourg,"",46.167572,-1.024608,0,A411,2023-10-20 04:01:38.0
P6003,6003,La Gabardelière,"",46.174451,-1.036064,0,A3165,2023-10-20 04:01:38.0
P6004,6004,La Gabardelière,"",46.17445,-1.036271,0,A3165,2023-10-20 04:01:38.0
P6005,6005,Stade de Bourgneuf,"",46.170243,-1.020162,0,A7447,2023-10-20 04:01:38.0
P6007,6007,Chartrie,"",46.170598,-1.023101,0,A8034,2023-10-20 04:01:38.0
P6008,6008,Chartrie,"",46.170559,-1.023251,0,A8034,2023-10-20 04:01:38.0
P6009,6009,Calvaire,"",46.170145,-1.016409,0,A412,2023-10-20 04:01:38.0
P6200,6200,Les Gacheteries,"",46.162027,-1.021582,0,A413,2023-10-20 04:01:38.0
P6201,6201,Les Gacheteries,"",46.162053,-1.021793,0,A413,2023-10-20 04:01:38.0
P6202,6202,Les Ormeaux,"",46.152203,-1.007515,0,A1841,2023-10-20 04:01:38.0
P6203,6203,Les Ormeaux,"",46.15219,-1.007422,0,A1841,2023-10-20 04:01:38.0
P6204,6204,Mairie de Montroy,"",46.156426,-1.013455,0,A1842,2023-10-20 04:01:38.0
P6205,6205,Mairie de Montroy,"",46.155832,-1.012974,0,A1842,2023-10-20 04:01:38.0
P6208,6208,Treuil Arnaudeau,"",46.171083,-1.004082,0,A2909,2023-10-20 04:01:38.0
P6209,6209,Treuil Arnaudeau,"",46.171047,-1.004202,0,A2909,2023-10-20 04:01:38.0
P6211,6211,Sud Commanderie,"",46.164624,-1.027391,0,A1844,2023-10-20 04:01:38.0
P6212,6212,Sud Commanderie,"",46.164562,-1.027397,0,A1844,2023-10-20 04:01:38.0
P6400,6400,La Couronne de Cugné,"",46.143473,-0.970739,0,A2904,2023-10-20 04:01:38.0
P6401,6401,La Couronne de Cugné,"",46.143404,-0.970898,0,A2904,2023-10-20 04:01:38.0
P6402,6402,La Martinière,"",46.15333,-0.932647,0,A2899,2023-10-20 04:01:38.0
P6403,6403,La Martinière,"",46.153467,-0.932723,0,A2899,2023-10-20 04:01:38.0
P6404,6404,La Navisselière,"",46.147355,-0.952133,0,A2906,2023-10-20 04:01:38.0
P6405,6405,La Navisselière,"",46.147323,-0.952072,0,A2906,2023-10-20 04:01:38.0
P6406,6406,L'Aubertière,"",46.156305,-0.987268,0,A2901,2023-10-20 04:01:38.0
P6407,6407,L'Aubertière,"",46.156361,-0.987731,0,A2901,2023-10-20 04:01:38.0
P6408,6408,Le Moulin Neuf,"",46.158278,-0.950043,0,A2907,2023-10-20 04:01:38.0
P6409,6409,Le Moulin Neuf,"",46.158729,-0.950147,0,A2907,2023-10-20 04:01:38.0
P6410,6410,Le Pontreau,"",46.177871,-0.956471,0,A2908,2023-10-20 04:01:38.0
P6411,6411,Le Verger,"",46.158427,-0.971062,0,A7283,2023-10-20 04:01:38.0
P6412,6412,Le Verger,"",46.158343,-0.970769,0,A7283,2023-10-20 04:01:38.0
P6413,6413,Les Touches,"",46.16661,-0.947601,0,A2910,2023-10-20 04:01:38.0
P6414,6414,Les Touches,"",46.1668,-0.947812,0,A2910,2023-10-20 04:01:38.0
P6415,6415,Val Pastour,"",46.158752,-0.976526,0,A6566,2023-10-20 04:01:38.0
P6416,6416,Val Pastour,"",46.158669,-0.976534,0,A6566,2023-10-20 04:01:38.0
P6600,6600,Belle d'Oie,"",46.140938,-0.956286,0,A2475,2023-10-20 04:01:38.0
P6601,6601,Belle d'Oie,"",46.141341,-0.955701,0,A2475,2023-10-20 04:01:38.0
P6602,6602,Cugné,"",46.142085,-0.966955,0,A2474,2023-10-20 04:01:38.0
P6603,6603,Cugné,"",46.142138,-0.967018,0,A2474,2023-10-20 04:01:38.0
P6604,6604,Eglise de Saint Christophe,"",46.145506,-0.947407,0,A4690,2023-10-20 04:01:38.0
P6605,6605,Eglise de Saint Christophe,"",46.145435,-0.947508,0,A4690,2023-10-20 04:01:38.0
P6606,6606,La Mazurie,"",46.147765,-0.941759,0,A2476,2023-10-20 04:01:38.0
P6607,6607,La Panonnière,"",46.131886,-0.923322,0,A5229,2023-10-20 04:01:38.0
P6608,6608,La Panonnière,"",46.132534,-0.923539,0,A5229,2023-10-20 04:01:38.0
P6609,6609,Stade de Saint Christophe,"",46.141572,-0.943573,0,A8007,2023-10-20 04:01:38.0
P6610,6610,Stade de Saint Christophe,"",46.141586,-0.943712,0,A8007,2023-10-20 04:01:38.0
P7000,7000,Croix Fort,"",46.136402,-1.014549,0,A5830,2023-10-20 04:01:38.0
P7001,7001,Croix Fort,"",46.136464,-1.015218,0,A5830,2023-10-20 04:01:38.0
P7002,7002,Les Massardes,"",46.140396,-1.033142,0,A840,2023-10-20 04:01:38.0
P7003,7003,Les Massardes,"",46.140511,-1.033755,0,A840,2023-10-20 04:01:38.0
P7004,7004,Mairie de Clavette,"",46.138964,-1.027072,0,A5954,2023-10-20 04:01:38.0
P7005,7005,Mairie de Clavette,"",46.139001,-1.027472,0,A5954,2023-10-20 04:01:38.0
P7200,7200,Chassagné,"",46.131884,-1.044205,0,A1443,2023-10-20 04:01:38.0
P7201,7201,Chassagné,"",46.131843,-1.044179,0,A1443,2023-10-20 04:01:38.0
P7202,7202,Collège Françoise Dolto,"",46.1314,-1.00603,0,A1447,2023-10-20 04:01:38.0
P7203,7203,Fief Chapitre,"",46.134964,-1.010083,0,A5831,2023-10-20 04:01:38.0
P7204,7204,Fief Chapitre,"",46.13492,-1.010055,0,A5831,2023-10-20 04:01:38.0
P7205,7205,Fief Jaulin,"",46.123899,-1.006084,0,A1448,2023-10-20 04:01:38.0
P7206,7206,Fief Jaulin,"",46.12423,-1.006192,0,A1448,2023-10-20 04:01:38.0
P7207,7207,La Jarrie Gare SNCF,"",46.120016,-1.023733,0,A8005,2023-10-20 04:01:38.0
P7208,7208,Les Abeilles,"",46.129868,-1.002047,0,A1455,2023-10-20 04:01:38.0
P7209,7209,Les Abeilles,"",46.129912,-1.002224,0,A1455,2023-10-20 04:01:38.0
P7210,7210,Les Deux Moulins,"",46.132328,-1.013692,0,A6940,2023-10-20 04:01:38.0
P7211,7211,Les Deux Moulins,"",46.132322,-1.013625,0,A6940,2023-10-20 04:01:38.0
P7212,7212,Moulin d'Amour de La Jarrie,"",46.124202,-1.011399,0,A6939,2023-10-20 04:01:38.0
P7213,7213,Moulin d'Amour de La Jarrie,"",46.124231,-1.011431,0,A6939,2023-10-20 04:01:38.0
P7214,7214,Puyvineux,"",46.127007,-0.984258,0,A6838,2023-10-20 04:01:38.0
P7215,7215,Puyvineux,"",46.127077,-0.984298,0,A6838,2023-10-20 04:01:38.0
P7216,7216,Fief Retaillé,"",46.117915,-1.005682,0,A8037,2023-10-20 04:01:38.0
P7217,7217,Fief Retaillé,"",46.117963,-1.005808,0,A8037,2023-10-20 04:01:38.0
P7400,7400,Boulangerie,"",46.109489,-1.006507,0,A4689,2023-10-20 04:01:38.0
P7401,7401,Boulangerie,"",46.109344,-1.006127,0,A4689,2023-10-20 04:01:38.0
P7402,7402,La Trigalle,"",46.10735,-0.997632,0,A1003,2023-10-20 04:01:38.0
P7403,7403,La Trigalle,"",46.107452,-0.997843,0,A1003,2023-10-20 04:01:38.0
P7404,7404,Rue du Chat,"",46.111239,-1.010944,0,A4688,2023-10-20 04:01:38.0
P7405,7405,Rue du Chat,"",46.111074,-1.010807,0,A4688,2023-10-20 04:01:38.0
P7600,7600,Carrefour de Buzay,"",46.126674,-1.078247,0,A1433,2023-10-20 04:01:38.0
P7601,7601,Carrefour de Buzay,"",46.126825,-1.078155,0,A1433,2023-10-20 04:01:38.0
P7602,7602,Carrefour de Vuhé,"",46.118919,-1.07792,0,A1434,2023-10-20 04:01:38.0
P7603,7603,Carrefour de Vuhé,"",46.118748,-1.077896,0,A1434,2023-10-20 04:01:38.0
P7604,7604,Cramahé,"",46.111273,-1.067484,0,A5734,2023-10-20 04:01:38.0
P7605,7605,Cramahé,"",46.111467,-1.067501,0,A5734,2023-10-20 04:01:38.0
P7606,7606,Ecoles,"",46.129515,-1.070345,0,A1436,2023-10-20 04:01:38.0
P7607,7607,Ecoles,"",46.129431,-1.070715,0,A1436,2023-10-20 04:01:38.0
P7608,7608,La Girardière,"",46.124139,-1.049845,0,A4685,2023-10-20 04:01:38.0
P7609,7609,La Girardière,"",46.124442,-1.05034,0,A4685,2023-10-20 04:01:38.0
P7610,7610,La Richarderie,"",46.117081,-1.049349,0,A7445,2023-10-20 04:01:38.0
P7611,7611,Le Givrand,"",46.130126,-1.080122,0,A1438,2023-10-20 04:01:38.0
P7612,7612,Le Givrand,"",46.130002,-1.080088,0,A1438,2023-10-20 04:01:38.0
P7613,7613,Le Moulin,"",46.126482,-1.067526,0,A1439,2023-10-20 04:01:38.0
P7614,7614,Le Moulin,"",46.126449,-1.06742,0,A1439,2023-10-20 04:01:38.0
P7615,7615,Le Moulin de Plaisance,"",46.112468,-1.051995,0,A5736,2023-10-20 04:01:38.0
P7616,7616,Pierre de Coubertin,"",46.124452,-1.072947,0,A7361,2023-10-20 04:01:38.0
P7617,7617,Pierre de Coubertin,"",46.124398,-1.072816,0,A7361,2023-10-20 04:01:38.0
P7618,7618,Place de la Liberté,"",46.127949,-1.072025,0,A5537,2023-10-20 04:01:38.0
P7619,7619,Place de la Liberté,"",46.12776,-1.071972,0,A5537,2023-10-20 04:01:38.0
P7620,7620,Pluviers Dorés,"",46.126182,-1.064308,0,A1440,2023-10-20 04:01:38.0
P7621,7621,Pluviers Dorés,"",46.12597,-1.064129,0,A1440,2023-10-20 04:01:38.0
P8000,8000,Alstom,[AlstoAy] ASpln,46.135891,-1.123216,0,A202,2023-10-20 04:01:38.0
P8001,8001,Alstom,"",46.136055,-1.125218,0,A202,2023-10-20 04:01:38.0
P8002,8002,Alstom,"",46.136052,-1.125068,0,A202,2023-10-20 04:01:38.0
P8003,8003,Alstom,[AlstoLP] Abri,46.136444,-1.124238,0,A202,2023-10-20 04:01:38.0
P8004,8004,Ancienne Gare,"",46.136465,-1.111697,0,A4801,2023-10-20 04:01:38.0
P8005,8005,Ancienne Gare,"",46.136341,-1.111857,0,A4801,2023-10-20 04:01:38.0
P8006,8006,Anville,"",46.137997,-1.111511,0,A4799,2023-10-20 04:01:38.0
P8007,8007,Anville,"",46.137926,-1.111471,0,A4799,2023-10-20 04:01:38.0
P8008,8008,Barbedette,[BarbeCh] Abri,46.132072,-1.118638,0,A6841,2023-10-20 04:01:38.0
P8009,8009,Barbedette,[BarbeGa],46.132218,-1.118564,0,A6841,2023-10-20 04:01:38.0
P8010,8010,Belle Aire,[BelAiAy] ASpln,46.131066,-1.0964,0,A4684,2023-10-20 04:01:38.0
P8011,8011,Belle Aire,[BelAiLl] Abri,46.131288,-1.098094,0,A4684,2023-10-20 04:01:38.0
P8012,8012,Bourg d'Aytré,"",46.133634,-1.113191,0,A203,2023-10-20 04:01:38.0
P8013,8013,Brassens,"",46.141425,-1.131468,0,A4806,2023-10-20 04:01:38.0
P8014,8014,Brassens,"",46.141371,-1.131495,0,A4806,2023-10-20 04:01:38.0
P8016,8016,Collège,"",46.132791,-1.124403,0,A4798,2023-10-20 04:01:38.0
P8017,8017,Collège,"",46.133021,-1.124912,0,A4798,2023-10-20 04:01:38.0
P8018,8018,Collège de l'Atlantique,"",46.131507,-1.126082,0,A205,2023-10-20 04:01:38.0
P8019,8019,Cottes Mailles,"",46.141438,-1.121091,0,A4848,2023-10-20 04:01:38.0
P8020,8020,Cottes Mailles,"",46.141585,-1.121136,0,A4848,2023-10-20 04:01:38.0
P8021,8021,Courteras,"",46.133972,-1.108271,0,A5915,2023-10-20 04:01:38.0
P8023,8023,Ecole La Courbe,"",46.14073,-1.134001,0,A4828,2023-10-20 04:01:38.0
P8024,8024,Ecole La Courbe,"",46.140876,-1.133934,0,A4828,2023-10-20 04:01:38.0
P8025,8025,Gare d'Aytré,[GaAytLP] ASpln,46.127308,-1.127705,0,A6103,2023-10-20 04:01:38.0
P8026,8026,Jaurès,[JaureAy] ASpln,46.133141,-1.11268,0,A4682,2023-10-20 04:01:38.0
P8027,8027,Jaurès,[JaureLl] ASpln,46.132766,-1.111575,0,A4682,2023-10-20 04:01:38.0
P8028,8028,Jules Ferry,[JuFerAy] ASpln,46.134111,-1.117958,0,A4680,2023-10-20 04:01:38.0
P8029,8029,Jules Ferry,[JuFerLP] Abri,46.134275,-1.118247,0,A4680,2023-10-20 04:01:38.0
P8030,8030,Les Cèdres,[CedreCh],46.129369,-1.116523,0,A206,2023-10-20 04:01:38.0
P8031,8031,Les Cèdres,[CedreGa],46.13033,-1.117071,0,A206,2023-10-20 04:01:38.0
P8032,8032,Les Embruns,[EmbruLP] Abri,46.129605,-1.122838,0,A4800,2023-10-20 04:01:38.0
P8033,8033,Les Iles,[LIlesAy] Abri,46.137983,-1.12913,0,A207,2023-10-20 04:01:38.0
P8034,8034,Les Iles,[LIlesLP] Abri,46.137716,-1.127908,0,A207,2023-10-20 04:01:38.0
P8035,8035,Les Treilles,"",46.140668,-1.114964,0,A4861,2023-10-20 04:01:38.0
P8036,8036,Les Treilles,"",46.140339,-1.115257,0,A4861,2023-10-20 04:01:38.0
P8037,8037,Les Vignes,"",46.138843,-1.114697,0,A4803,2023-10-20 04:01:38.0
P8038,8038,Les Vignes,"",46.138771,-1.114804,0,A4803,2023-10-20 04:01:38.0
P8039,8039,Malidor,[MldorAy] ASpln,46.131652,-1.105,0,A4683,2023-10-20 04:01:38.0
P8040,8040,Malidor,[MldorLl] Abri,46.131769,-1.10508,0,A4683,2023-10-20 04:01:38.0
P8041,8041,Marais Doux,[MaDouAy] ASpln,46.127336,-1.122213,0,A6842,2023-10-20 04:01:38.0
P8042,8042,Marais Doux,[MaDouLP] Abri,46.127127,-1.122402,0,A6842,2023-10-20 04:01:38.0
P8043,8043,Modigliani,[ModigAy] ASpln,46.131875,-1.108227,0,A4795,2023-10-20 04:01:38.0
P8044,8044,Modigliani,[ModigLl] Abri,46.13193,-1.107827,0,A4795,2023-10-20 04:01:38.0
P8045,8045,Place des Grands Prés,[PGPreAy] AScen,46.13275,-1.121025,0,A208,2023-10-20 04:01:38.0
P8046,8046,Place des Grands Prés,[PGPreLP] Abri,46.132569,-1.121438,0,A208,2023-10-20 04:01:38.0
P8047,8047,Place du Pourquoi Pas,"",46.13383,-1.127616,0,A4793,2023-10-20 04:01:38.0
P8048,8048,Place du Pourquoi Pas,"",46.134419,-1.127376,0,A4793,2023-10-20 04:01:38.0
P8049,8049,Renan,[RenanAy] ASpln,46.129327,-1.117844,0,A4805,2023-10-20 04:01:38.0
P8050,8050,Rue d'Yves,"",46.141211,-1.126949,0,A4884,2023-10-20 04:01:38.0
P8051,8051,Rue d'Yves,"",46.141167,-1.126696,0,A4884,2023-10-20 04:01:38.0
P8052,8052,Salengro,[SalenAy] Abri,46.140094,-1.133491,0,A4525,2023-10-20 04:01:38.0
P8053,8053,Salengro,[SalenLP] Abri,46.140325,-1.13495,0,A4525,2023-10-20 04:01:38.0
P8054,8054,Jules Ferry,"",46.133953,-1.117781,0,A4680,2023-10-20 04:01:38.0
P8055,8055,Jules Ferry,"",46.133879,-1.118108,0,A4680,2023-10-20 04:01:38.0
P8056,8056,P+R Simone Veil,[PRSVeJa],46.142985,-1.126616,0,A4763,2023-10-20 04:01:38.0
P8057,8057,P+R Simone Veil,"",46.143647,-1.127358,0,A4763,2023-10-20 04:01:38.0
P8400,8400,Blockhaus,[BlockCh],46.104633,-1.104872,0,A4545,2023-10-20 04:01:38.0
P8401,8401,Blockhaus,[BlockGa],46.104508,-1.104406,0,A4545,2023-10-20 04:01:38.0
P8402,8402,Cimetière d'Angoulins,[CimAnCh],46.10726,-1.105978,0,A55,2023-10-20 04:01:38.0
P8403,8403,Cimetière d'Angoulins,[CimAnGa],46.107322,-1.105601,0,A55,2023-10-20 04:01:38.0
P8404,8404,Gare SNCF d'Angoulins-sur-Mer,"",46.107981,-1.115071,0,A5795,2023-10-20 04:01:38.0
P8405,8405,Gare SNCF d'Angoulins-sur-Mer,"",46.10758,-1.114671,0,A5795,2023-10-20 04:01:38.0
P8406,8406,Les Russons,"",46.110261,-1.111404,0,A4541,2023-10-20 04:01:38.0
P8407,8407,Les Russons,"",46.110164,-1.111405,0,A4541,2023-10-20 04:01:38.0
P8409,8409,Les Tertres,[TertrCh],46.104117,-1.09894,0,A4544,2023-10-20 04:01:38.0
P8410,8410,Les Tertres,[TertrGa],46.103993,-1.098553,0,A4544,2023-10-20 04:01:38.0
P8412,8412,Les Veaux Verts,[VeaVeCh],46.101579,-1.108045,0,A4542,2023-10-20 04:01:38.0
P8413,8413,Les Veaux Verts,[VeaVeGa],46.101356,-1.107711,0,A4542,2023-10-20 04:01:38.0
P8414,8414,Mairie d'Angoulins,"",46.105942,-1.111205,0,A6840,2023-10-20 04:01:38.0
P8415,8415,Mairie d'Angoulins,"",46.106067,-1.111337,0,A6840,2023-10-20 04:01:38.0
P8416,8416,Maison Carrée,[MaCarCh],46.097386,-1.104311,0,A4543,2023-10-20 04:01:38.0
P8417,8417,Maison Carrée,[MaCarGa],46.097342,-1.104059,0,A4543,2023-10-20 04:01:38.0
P8418,8418,Mille Fleurs,[MilFlCh],46.103627,-1.107377,0,A57,2023-10-20 04:01:38.0
P8419,8419,Mille Fleurs,[MilFlGa],46.1036,-1.107272,0,A57,2023-10-20 04:01:38.0
P8420,8420,Nationale,[NatioGa],46.104019,-1.094792,0,A4546,2023-10-20 04:01:38.0
P8422,8422,Saint-Jean-des-Sables,[StJSaCh],46.09492,-1.100005,0,A59,2023-10-20 04:01:38.0
P8423,8423,Saint-Jean-des-Sables,[StJSaGa],46.095018,-1.100019,0,A59,2023-10-20 04:01:38.0
P8425,8425,Stade d'Angoulins,[StdAnCh],46.106495,-1.107791,0,A60,2023-10-20 04:01:38.0
P8426,8426,Stade d'Angoulins,[StdAnGa],46.106525,-1.107629,0,A60,2023-10-20 04:01:38.0
P8427,8427,Centre Commercial d'Angoulins,"",46.109712,-1.104961,0,A4539,2023-10-20 04:01:38.0
P9000,9000,Alon,[AlonCh],46.064896,-1.088527,0,A4532,2023-10-20 04:01:38.0
P9001,9001,Alon,[AlonGa],46.064842,-1.088384,0,A4532,2023-10-20 04:01:38.0
P9002,9002,Angoute,[AngouGa],46.057997,-1.082708,0,A6077,2023-10-20 04:01:38.0
P9003,9003,Angoute,"",46.057915,-1.082688,0,A6077,2023-10-20 04:01:38.0
P9004,9004,Aristide Briand,[AriBrCh],46.077484,-1.088461,0,A8001,2023-10-20 04:01:38.0
P9005,9005,Aristide Briand,[AriBrGa],46.077729,-1.088515,0,A8001,2023-10-20 04:01:38.0
P9006,9006,Ball-Trap,[BTrapCh],46.091982,-1.099299,0,A4526,2023-10-20 04:01:38.0
P9007,9007,Ball-Trap,[BTrapGa],46.092105,-1.099232,0,A4526,2023-10-20 04:01:38.0
P9008,9008,Beauséjour,[BsejoCh],46.077998,-1.092277,0,A6071,2023-10-20 04:01:38.0
P9009,9009,Bellevue,[BlvueCh],46.056205,-1.087234,0,A6846,2023-10-20 04:01:38.0
P9010,9010,Casino,[CasinCh],46.076331,-1.091634,0,A4536,2023-10-20 04:01:38.0
P9011,9011,Centre Aquatique,[CAquaCh],46.062526,-1.091539,0,A4531,2023-10-20 04:01:38.0
P9012,9012,Centre Aquatique,[CAquaGa],46.062527,-1.091407,0,A4531,2023-10-20 04:01:38.0
P9013,9013,Chêne Vert,"",46.077459,-1.083533,0,A724,2023-10-20 04:01:38.0
P9014,9014,Chêne Vert,"",46.077233,-1.085465,0,A724,2023-10-20 04:01:38.0
P9016,9016,Collège André Malraux,"",46.079761,-1.087792,0,A6863,2023-10-20 04:01:38.0
P9017,9017,Gare de Châtelaillon-Plage,[GaChaCh],46.078064,-1.091127,0,A3817,2023-10-20 04:01:38.0
P9018,9018,Jonchery,[JonchCh],46.068845,-1.090557,0,A6069,2023-10-20 04:01:38.0
P9019,9019,Jonchery,[JonchGa],46.068877,-1.09048,0,A6069,2023-10-20 04:01:38.0
P9020,9020,La Petite Borde,"",46.07929,-1.080826,0,A4527,2023-10-20 04:01:38.0
P9021,9021,La Petite Borde,"",46.079144,-1.081162,0,A4527,2023-10-20 04:01:38.0
P9022,9022,La Rosière,[RsierCh],46.06665,-1.08734,0,A6070,2023-10-20 04:01:38.0
P9023,9023,La Rosière,[RsierGa],46.066747,-1.087313,0,A6070,2023-10-20 04:01:38.0
P9024,9024,Les Bouchôleurs,[BouchGa],46.053368,-1.082977,0,A719,2023-10-20 04:01:38.0
P9025,9025,Les Dunes,"",46.066097,-1.09135,0,A6075,2023-10-20 04:01:38.0
P9026,9026,Les Dunes,"",46.065922,-1.091485,0,A6075,2023-10-20 04:01:38.0
P9027,9027,Les Sables,[SableCh],46.084083,-1.093127,0,A6072,2023-10-20 04:01:38.0
P9028,9028,Les Sables,[SableGa],46.08427,-1.093074,0,A6072,2023-10-20 04:01:38.0
P9029,9029,Mairie de Châtelaillon-Plage,[MaiChCh],46.07321,-1.089777,0,A4528,2023-10-20 04:01:38.0
P9030,9030,Mairie de Châtelaillon-Plage,[MaiChGa],46.073368,-1.089799,0,A4528,2023-10-20 04:01:38.0
P9031,9031,Office de Tourisme,"",46.076897,-1.087559,0,A730,2023-10-20 04:01:38.0
P9032,9032,Office de Tourisme,"",46.076947,-1.087647,0,A730,2023-10-20 04:01:38.0
P9033,9033,Saint-Marsault,[SMarsGa],46.075417,-1.090277,0,A6076,2023-10-20 04:01:38.0
P9034,9034,Sècheboue,[SebouCh],46.088098,-1.096792,0,A4537,2023-10-20 04:01:38.0
P9035,9035,Sècheboue,[SebouGa],46.088082,-1.096513,0,A4537,2023-10-20 04:01:38.0
P9036,9036,Surcouf,[SurcoCh],46.080656,-1.09068,0,A8008,2023-10-20 04:01:38.0
P9037,9037,Surcouf,[SurcoGa],46.080894,-1.090701,0,A8008,2023-10-20 04:01:38.0
P9038,9038,Thalasso,[ThalaCh],46.05881,-1.088095,0,A5839,2023-10-20 04:01:38.0
P9039,9039,Thalasso,[ThalaGa],46.058925,-1.088304,0,A5839,2023-10-20 04:01:38.0
P9041,9041,Les Ecuyers,"",46.07349,-1.082011,0,A8033,2023-10-20 04:01:38.0
P9042,9042,Les Ecuyers,"",46.073472,-1.081928,0,A8033,2023-10-20 04:01:38.0
P9400,9400,Bourg de Salles sur Mer,"",46.105096,-1.053972,0,A3265,2023-10-20 04:01:38.0
P9401,9401,Bourg de Salles sur Mer,"",46.105128,-1.054016,0,A3265,2023-10-20 04:01:38.0
P9402,9402,Champs Maillard,"",46.103607,-1.078529,0,A5786,2023-10-20 04:01:38.0
P9403,9403,Eglise de Salles sur Mer,"",46.10427,-1.052586,0,A6964,2023-10-20 04:01:38.0
P9404,9404,Eglise de Salles sur Mer,"",46.104594,-1.052399,0,A6964,2023-10-20 04:01:38.0
P9405,9405,Grande Rue,"",46.117565,-1.023766,0,A4686,2023-10-20 04:01:38.0
P9406,9406,Grande Rue,"",46.117527,-1.023816,0,A4686,2023-10-20 04:01:38.0
P9407,9407,La Frénée,"",46.095758,-1.058764,0,A3272,2023-10-20 04:01:38.0
P9408,9408,La Frénée,"",46.0958,-1.057951,0,A3272,2023-10-20 04:01:38.0
P9409,9409,L'Aumonerie,"",46.117375,-1.026103,0,A5735,2023-10-20 04:01:38.0
P9411,9411,Le Collet,"",46.099879,-1.054075,0,A5538,2023-10-20 04:01:38.0
P9412,9412,Le Collet,"",46.09997,-1.053982,0,A5538,2023-10-20 04:01:38.0
P9413,9413,Le Puits,"",46.115403,-1.017932,0,A4687,2023-10-20 04:01:38.0
P9414,9414,Le Puits,"",46.115366,-1.017956,0,A4687,2023-10-20 04:01:38.0
P9415,9415,Les Bonneveaux,"",46.083551,-1.07398,0,A3226,2023-10-20 04:01:38.0
P9416,9416,Les Bonneveaux,"",46.084149,-1.071744,0,A3226,2023-10-20 04:01:38.0
P9417,9417,Les Monrois,"",46.106649,-1.059545,0,A5733,2023-10-20 04:01:38.0
P9418,9418,Les Monrois,"",46.106759,-1.0596,0,A5733,2023-10-20 04:01:38.0
P9419,9419,ZAC de l'Aubépin,"",46.121103,-1.037752,0,A5711,2023-10-20 04:01:38.0
P9420,9420,ZAC de l'Aubépin,"",46.121543,-1.039124,0,A5711,2023-10-20 04:01:38.0
P9421,9421,Champs Maillard,"",46.103567,-1.078541,0,A5786,2023-10-20 04:01:38.0
P9500,9500,La Ragoterie,"",46.087567,-1.059844,0,A3222,2023-10-20 04:01:38.0
P9501,9501,Loin du Bruit,"",46.082417,-1.074042,0,A3224,2023-10-20 04:01:38.0
P9502,9502,Loin du Bruit,"",46.082472,-1.073955,0,A3224,2023-10-20 04:01:38.0
P9503,9503,Mairie de Saint Vivien,"",46.079913,-1.054266,0,A3225,2023-10-20 04:01:38.0
P9504,9504,Moulin de la Pierre,"",46.075531,-1.033619,0,A8035,2023-10-20 04:01:38.0
P9600,9600,Georges Musset,"",46.073646,-1.005426,0,A6914,2023-10-20 04:01:38.0
P9601,9601,Georges Musset,"",46.073391,-1.00455,0,A6914,2023-10-20 04:01:38.0
P9602,9602,La Fondelay,"",46.068266,-0.98419,0,A6946,2023-10-20 04:01:38.0
P9603,9603,La Fondelay,"",46.068343,-0.984088,0,A6946,2023-10-20 04:01:38.0
P9604,9604,La Gravelle,"",46.082166,-0.96637,0,A3415,2023-10-20 04:01:38.0
P9605,9605,La Gravelle,"",46.082177,-0.966526,0,A3415,2023-10-20 04:01:38.0
P9606,9606,Mortagne,"",46.083917,-1.019448,0,A3416,2023-10-20 04:01:38.0
P9607,9607,Mortagne,"",46.083913,-1.019358,0,A3416,2023-10-20 04:01:38.0
P9608,9608,Stade de Thairé,"",46.074226,-0.997941,0,A5876,2023-10-20 04:01:38.0
P9609,9609,Stade de Thairé,"",46.074258,-0.997867,0,A5876,2023-10-20 04:01:38.0
P9700,9700,Dulin,[DulinGa],46.054722,-1.079234,0,A8004,2023-10-20 04:01:38.0
P9701,9701,Eglise d'Yves,"",46.01759,-1.048344,0,A5948,2023-10-20 04:01:38.0
P9702,9702,La Cabane des Sables,"",46.058616,-1.071457,0,A4259,2023-10-20 04:01:38.0
P9703,9703,La Cabane des Sables,"",46.058569,-1.071453,0,A4259,2023-10-20 04:01:38.0
P9704,9704,La Chapelle,"",46.044941,-1.047331,0,A4258,2023-10-20 04:01:38.0
P9705,9705,La Chapelle,"",46.044924,-1.04739,0,A4258,2023-10-20 04:01:38.0
P9706,9706,Le Marouillet Ecole,"",46.041294,-1.045006,0,A3715,2023-10-20 04:01:38.0
P9707,9707,Les Trois Canons,"",46.057224,-1.060188,0,A3720,2023-10-20 04:01:38.0
P9708,9708,Les Trois Canons,"",46.057178,-1.060278,0,A3720,2023-10-20 04:01:38.0
P9709,9709,Port Punay,[PoPunGa],46.05704,-1.077245,0,A4214,2023-10-20 04:01:38.0
P9710,9710,Port Punay,"",46.056886,-1.076962,0,A4214,2023-10-20 04:01:38.0
P9711,9711,Salle Polyvalente de Yves,"",46.042261,-1.045074,0,A8032,2023-10-20 04:01:38.0
P9712,9712,Salle Polyvalente de Yves,"",46.042216,-1.04504,0,A8032,2023-10-20 04:01:38.0
P9713,9713,Voutron,"",46.049046,-1.024524,0,A3725,2023-10-20 04:01:38.0
